{"0000012": {"centres": [{"name": "Grafton", "kind": "sua", "suaId": 14, "type": "Significant Urban Area", "pop": 17155, "big": false, "lon": 152.9512, "lat": -29.7051, "km": 0.0}], "hospitals": [{"name": "Grafton Base Hospital", "cat": "Regional Major Hospital (100+ beds)", "beds": 100, "lon": 152.9333, "lat": -29.6833, "km": 2.1}]}, "0000074": {"centres": [{"name": "Grafton", "kind": "sua", "suaId": 14, "type": "Significant Urban Area", "pop": 17155, "big": false, "lon": 152.93891, "lat": -29.72496, "km": 0.0}], "hospitals": [{"name": "Grafton Base Hospital", "cat": "Regional Major Hospital (100+ beds)", "beds": 100, "lon": 152.9333, "lat": -29.6833, "km": 2.8}]}, "0860083": {"centres": [{"name": "Grafton", "kind": "sua", "suaId": 14, "type": "Significant Urban Area", "pop": 17155, "big": false, "lon": 152.93946, "lat": -29.70734, "km": 0.0}], "hospitals": [{"name": "Grafton Base Hospital", "cat": "Regional Major Hospital (100+ beds)", "beds": 100, "lon": 152.9333, "lat": -29.6833, "km": 0.5}]}, "0000083": {"centres": [{"name": "Grafton", "kind": "sua", "suaId": 14, "type": "Significant Urban Area", "pop": 17155, "big": false, "lon": 152.94374, "lat": -29.70478, "km": 0.0}], "hospitals": [{"name": "Grafton Base Hospital", "cat": "Regional Major Hospital (100+ beds)", "beds": 100, "lon": 152.9333, "lat": -29.6833, "km": 0.4}]}, "0000152": {"centres": [{"name": "Grafton", "kind": "sua", "suaId": 14, "type": "Significant Urban Area", "pop": 17155, "big": false, "lon": 152.94339, "lat": -29.67468, "km": 0.0}, {"name": "Yamba", "kind": "town", "pop": 6342, "type": "Town Centre", "lon": 153.33875, "lat": -29.43318, "km": 0.0}, {"name": "Maclean", "kind": "town", "pop": 2711, "type": "Town Centre", "lon": 153.20511, "lat": -29.45707, "km": 0.8}], "hospitals": [{"name": "Grafton Base Hospital", "cat": "Regional Major Hospital (100+ beds)", "beds": 100, "lon": 152.9333, "lat": -29.6833, "km": 0.5}]}, "0007731": {"centres": [{"name": "Yamba", "kind": "town", "pop": 6342, "type": "Town Centre", "lon": 153.33875, "lat": -29.43318, "km": 3.1}]}, "0860010": {"centres": [{"name": "Maclean", "kind": "town", "pop": 2711, "type": "Town Centre", "lon": 153.20511, "lat": -29.45707, "km": 1.7}]}, "0000010": {"centres": [{"name": "Coffs Harbour", "kind": "sua", "suaId": 10, "type": "Significant Urban Area", "pop": 51069, "big": false, "lon": 153.13905, "lat": -29.9799, "km": 0.0}, {"name": "Maclean", "kind": "town", "pop": 2711, "type": "Town Centre", "lon": 153.20511, "lat": -29.45707, "km": 0.9}]}, "0007738": {"centres": [{"name": "Grafton", "kind": "town", "type": "Major Town", "pop": 17155, "lon": 152.93256, "lat": -29.70965, "km": 11.9, "endpoint": true}]}, "0000151": {"centres": [{"name": "Grafton", "kind": "town", "type": "Major Town", "pop": 17155, "lon": 152.93256, "lat": -29.70965, "km": 5.8, "endpoint": true}]}, "0000150": {"centres": [{"name": "Grafton", "kind": "town", "type": "Major Town", "pop": 17155, "lon": 152.93256, "lat": -29.70965, "km": 11.3, "endpoint": true}]}}