{"0007230": {"centres": [{"name": "Sydney", "kind": "sua", "suaId": 30, "type": "Significant Urban Area", "pop": 4698656, "big": true, "lon": 150.91636, "lat": -33.85888, "km": 0.0}]}, "0002105": {"centres": [{"name": "Sydney", "kind": "sua", "suaId": 30, "type": "Significant Urban Area", "pop": 4698656, "big": true, "lon": 150.91802, "lat": -33.85092, "km": 0.0}]}, "0000609": {"centres": [{"name": "Sydney", "kind": "sua", "suaId": 30, "type": "Significant Urban Area", "pop": 4698656, "big": true, "lon": 150.87643, "lat": -33.85097, "km": 0.0}]}, "0000013": {"centres": [{"name": "Sydney", "kind": "sua", "suaId": 30, "type": "Significant Urban Area", "pop": 4698656, "big": true, "lon": 151.04866, "lat": -33.74608, "km": 0.0}], "hospitals": [{"name": "Westmead Hospital", "cat": "Urban Major Hospital (400+ beds)", "beds": 975, "lon": 150.9872, "lat": -33.8028, "km": 0.7}, {"name": "Liverpool Hospital", "cat": "Urban Major Hospital (400+ beds)", "beds": 877, "lon": 150.9264, "lat": -33.9297, "km": 1.7}, {"name": "Hornsby Ku-ring-gai Hospital", "cat": "Urban Major Hospital (400+ beds)", "beds": 400, "lon": 151.0994, "lat": -33.7025, "km": 1.9}], "dests": [{"name": "Moorebank Intermodal", "ftype": "Major Intermodal", "lon": 150.937, "lat": -33.935, "km": 2.7}]}, "0007222": {"centres": [{"name": "Sydney", "kind": "sua", "suaId": 30, "type": "Significant Urban Area", "pop": 4698656, "big": true, "lon": 150.88436, "lat": -33.86262, "km": 0.0}]}, "0007220": {"centres": [{"name": "Sydney", "kind": "sua", "suaId": 30, "type": "Significant Urban Area", "pop": 4698656, "big": true, "lon": 150.90498, "lat": -33.8694, "km": 0.0}]}, "0007223": {"centres": [{"name": "Sydney", "kind": "sua", "suaId": 30, "type": "Significant Urban Area", "pop": 4698656, "big": true, "lon": 150.91091, "lat": -33.87065, "km": 0.0}]}, "0002106": {"centres": [{"name": "Sydney", "kind": "sua", "suaId": 30, "type": "Significant Urban Area", "pop": 4698656, "big": true, "lon": 150.92223, "lat": -33.85084, "km": 0.0}]}, "0000646": {"centres": [{"name": "Sydney", "kind": "sua", "suaId": 30, "type": "Significant Urban Area", "pop": 4698656, "big": true, "lon": 150.92414, "lat": -33.84281, "km": 0.0}]}, "0008002": {"centres": [{"name": "Sydney", "kind": "sua", "suaId": 30, "type": "Significant Urban Area", "pop": 4698656, "big": true, "lon": 150.99754, "lat": -33.81576, "km": 0.0}], "hospitals": [{"name": "Liverpool Hospital", "cat": "Urban Major Hospital (400+ beds)", "beds": 877, "lon": 150.9264, "lat": -33.9297, "km": 0.6}, {"name": "Westmead Hospital", "cat": "Urban Major Hospital (400+ beds)", "beds": 975, "lon": 150.9872, "lat": -33.8028, "km": 1.7}], "dests": [{"name": "Moorebank Intermodal", "ftype": "Major Intermodal", "lon": 150.937, "lat": -33.935, "km": 1.5}]}, "0007250": {"centres": [{"name": "Sydney", "kind": "sua", "suaId": 30, "type": "Significant Urban Area", "pop": 4698656, "big": true, "lon": 150.96007, "lat": -33.83063, "km": 0.0}]}, "0006004": {"centres": [{"name": "Sydney", "kind": "sua", "suaId": 30, "type": "Significant Urban Area", "pop": 4698656, "big": true, "lon": 150.77268, "lat": -33.78416, "km": 0.0}], "hospitals": [{"name": "Royal Prince Alfred Hospital", "cat": "Urban Major Hospital (400+ beds)", "beds": 1200, "lon": 151.1819, "lat": -33.8889, "km": 1.2}, {"name": "Westmead Hospital", "cat": "Urban Major Hospital (400+ beds)", "beds": 975, "lon": 150.9872, "lat": -33.8028, "km": 1.7}, {"name": "Nepean Hospital", "cat": "Urban Major Hospital (400+ beds)", "beds": 520, "lon": 150.6867, "lat": -33.7625, "km": 1.8}, {"name": "Concord Repatriation General Hospital", "cat": "Urban Major Hospital (400+ beds)", "beds": 500, "lon": 151.1025, "lat": -33.8381, "km": 2.9}], "dests": [{"name": "Enfield Intermodal", "ftype": "Major Intermodal", "lon": 151.1, "lat": -33.883, "km": 1.7}]}, "0007256": {"centres": [{"name": "Sydney", "kind": "sua", "suaId": 30, "type": "Significant Urban Area", "pop": 4698656, "big": true, "lon": 150.93371, "lat": -33.80732, "km": 0.0}]}, "0000005": {"centres": [{"name": "Sydney", "kind": "sua", "suaId": 30, "type": "Significant Urban Area", "pop": 4698656, "big": true, "lon": 150.91265, "lat": -33.80197, "km": 0.0}, {"name": "Bathurst", "kind": "sua", "suaId": 4, "type": "Significant Urban Area", "pop": 36230, "big": false, "lon": 149.56542, "lat": -33.42039, "km": 0.0}, {"name": "Lithgow", "kind": "sua", "suaId": 18, "type": "Significant Urban Area", "pop": 11197, "big": false, "lon": 150.10442, "lat": -33.42509, "km": 0.0}, {"name": "Blue Mountains", "kind": "town", "pop": 30049, "type": "Regional City", "lon": 150.38006, "lat": -33.72086, "km": 0.6}, {"name": "Blackheath", "kind": "town", "pop": 4479, "type": "Town Centre", "lon": 150.29547, "lat": -33.62587, "km": 1.1}, {"name": "Wallerawang", "kind": "town", "pop": 2079, "type": "Town Centre", "lon": 150.0759, "lat": -33.40278, "km": 2.8}], "hospitals": [{"name": "Royal Prince Alfred Hospital", "cat": "Urban Major Hospital (400+ beds)", "beds": 1200, "lon": 151.1819, "lat": -33.8889, "km": 0.4}, {"name": "Bathurst Base Hospital", "cat": "Regional Major Hospital (100+ beds)", "beds": 140, "lon": 149.5783, "lat": -33.4206, "km": 0.7}, {"name": "Nepean Hospital", "cat": "Urban Major Hospital (400+ beds)", "beds": 520, "lon": 150.6867, "lat": -33.7625, "km": 1.3}, {"name": "St Vincents Hospital Sydney", "cat": "Urban Major Hospital (400+ beds)", "beds": 450, "lon": 151.22, "lat": -33.88, "km": 1.5}, {"name": "Westmead Hospital", "cat": "Urban Major Hospital (400+ beds)", "beds": 975, "lon": 150.9872, "lat": -33.8028, "km": 1.7}], "dests": [{"name": "Enfield Intermodal", "ftype": "Major Intermodal", "lon": 151.1, "lat": -33.883, "km": 1.6}]}, "0007233": {"centres": [{"name": "Sydney", "kind": "sua", "suaId": 30, "type": "Significant Urban Area", "pop": 4698656, "big": true, "lon": 150.93809, "lat": -33.89715, "km": 0.0}]}, "0007232": {"centres": [{"name": "Sydney", "kind": "sua", "suaId": 30, "type": "Significant Urban Area", "pop": 4698656, "big": true, "lon": 150.9584, "lat": -33.87185, "km": 0.0}]}, "0007221": {"centres": [{"name": "Sydney", "kind": "sua", "suaId": 30, "type": "Significant Urban Area", "pop": 4698656, "big": true, "lon": 150.93391, "lat": -33.88957, "km": 0.0}]}, "0007251": {"centres": [{"name": "Sydney", "kind": "sua", "suaId": 30, "type": "Significant Urban Area", "pop": 4698656, "big": true, "lon": 150.9695, "lat": -33.81558, "km": 0.0}], "hospitals": [{"name": "Westmead Hospital", "cat": "Urban Major Hospital (400+ beds)", "beds": 975, "lon": 150.9872, "lat": -33.8028, "km": 2.2}]}, "0007279": {"centres": [{"name": "Sydney", "kind": "sua", "suaId": 30, "type": "Significant Urban Area", "pop": 4698656, "big": true, "lon": 150.97019, "lat": -33.80592, "km": 0.0}], "hospitals": [{"name": "Westmead Hospital", "cat": "Urban Major Hospital (400+ beds)", "beds": 975, "lon": 150.9872, "lat": -33.8028, "km": 1.6}]}, "0007257": {"centres": [{"name": "Sydney", "kind": "sua", "suaId": 30, "type": "Significant Urban Area", "pop": 4698656, "big": true, "lon": 150.96947, "lat": -33.80729, "km": 0.0}], "hospitals": [{"name": "Westmead Hospital", "cat": "Urban Major Hospital (400+ beds)", "beds": 975, "lon": 150.9872, "lat": -33.8028, "km": 1.7}]}, "0007102": {"centres": [{"name": "Sydney", "kind": "sua", "suaId": 30, "type": "Significant Urban Area", "pop": 4698656, "big": true, "lon": 150.99373, "lat": -33.88143, "km": 0.0}]}, "0007106": {"centres": [{"name": "Sydney", "kind": "sua", "suaId": 30, "type": "Significant Urban Area", "pop": 4698656, "big": true, "lon": 150.9703, "lat": -33.86847, "km": 0.0}]}, "0007252": {"centres": [{"name": "Sydney", "kind": "sua", "suaId": 30, "type": "Significant Urban Area", "pop": 4698656, "big": true, "lon": 150.96113, "lat": -33.85046, "km": 0.0}], "hospitals": [{"name": "Westmead Hospital", "cat": "Urban Major Hospital (400+ beds)", "beds": 975, "lon": 150.9872, "lat": -33.8028, "km": 1.8}]}, "0000640": {"centres": [{"name": "Sydney", "kind": "sua", "suaId": 30, "type": "Significant Urban Area", "pop": 4698656, "big": true, "lon": 150.97365, "lat": -33.889, "km": 0.0}]}, "0007253": {"centres": [{"name": "Sydney", "kind": "sua", "suaId": 30, "type": "Significant Urban Area", "pop": 4698656, "big": true, "lon": 150.97412, "lat": -33.8446, "km": 0.0}]}, "0007481": {"centres": [{"name": "Sydney", "kind": "sua", "suaId": 30, "type": "Significant Urban Area", "pop": 4698656, "big": true, "lon": 150.9881, "lat": -33.80665, "km": 0.0}], "hospitals": [{"name": "Westmead Hospital", "cat": "Urban Major Hospital (400+ beds)", "beds": 975, "lon": 150.9872, "lat": -33.8028, "km": 0.3}]}, "0008007": {"centres": [{"name": "Sydney", "kind": "sua", "suaId": 30, "type": "Significant Urban Area", "pop": 4698656, "big": true, "lon": 150.95351, "lat": -33.75551, "km": 0.0}], "hospitals": [{"name": "Westmead Hospital", "cat": "Urban Major Hospital (400+ beds)", "beds": 975, "lon": 150.9872, "lat": -33.8028, "km": 0.3}]}, "0002096": {"centres": [{"name": "Sydney", "kind": "sua", "suaId": 30, "type": "Significant Urban Area", "pop": 4698656, "big": true, "lon": 150.99293, "lat": -33.86108, "km": 0.0}]}, "0002098": {"centres": [{"name": "Sydney", "kind": "sua", "suaId": 30, "type": "Significant Urban Area", "pop": 4698656, "big": true, "lon": 150.99334, "lat": -33.82983, "km": 0.0}], "hospitals": [{"name": "Westmead Hospital", "cat": "Urban Major Hospital (400+ beds)", "beds": 975, "lon": 150.9872, "lat": -33.8028, "km": 1.6}]}, "0007255": {"centres": [{"name": "Sydney", "kind": "sua", "suaId": 30, "type": "Significant Urban Area", "pop": 4698656, "big": true, "lon": 150.99674, "lat": -33.83789, "km": 0.0}]}, "0000184": {"centres": [{"name": "Sydney", "kind": "sua", "suaId": 30, "type": "Significant Urban Area", "pop": 4698656, "big": true, "lon": 150.93096, "lat": -33.70439, "km": 0.0}, {"name": "Lithgow", "kind": "town", "type": "Major Town", "pop": 11197, "lon": 150.15906, "lat": -33.48103, "km": 11.6, "endpoint": true}, {"name": "Richmond North", "kind": "town", "pop": 5467, "type": "Town Centre", "lon": 150.70618, "lat": -33.58359, "km": 1.3}], "hospitals": [{"name": "Westmead Hospital", "cat": "Urban Major Hospital (400+ beds)", "beds": 975, "lon": 150.9872, "lat": -33.8028, "km": 1.4}]}, "0002066": {"centres": [{"name": "Sydney", "kind": "sua", "suaId": 30, "type": "Significant Urban Area", "pop": 4698656, "big": true, "lon": 150.99843, "lat": -33.81901, "km": 0.0}], "hospitals": [{"name": "Westmead Hospital", "cat": "Urban Major Hospital (400+ beds)", "beds": 975, "lon": 150.9872, "lat": -33.8028, "km": 2.0}]}, "0007101": {"centres": [{"name": "Sydney", "kind": "sua", "suaId": 30, "type": "Significant Urban Area", "pop": 4698656, "big": true, "lon": 151.00391, "lat": -33.89803, "km": 0.0}]}, "0002049": {"centres": [{"name": "Sydney", "kind": "sua", "suaId": 30, "type": "Significant Urban Area", "pop": 4698656, "big": true, "lon": 151.02198, "lat": -33.8193, "km": 0.0}], "hospitals": [{"name": "Westmead Hospital", "cat": "Urban Major Hospital (400+ beds)", "beds": 975, "lon": 150.9872, "lat": -33.8028, "km": 2.5}]}, "0007276": {"centres": [{"name": "Sydney", "kind": "sua", "suaId": 30, "type": "Significant Urban Area", "pop": 4698656, "big": true, "lon": 151.00532, "lat": -33.80866, "km": 0.0}], "hospitals": [{"name": "Westmead Hospital", "cat": "Urban Major Hospital (400+ beds)", "beds": 975, "lon": 150.9872, "lat": -33.8028, "km": 1.5}]}, "0007468": {"centres": [{"name": "Sydney", "kind": "sua", "suaId": 30, "type": "Significant Urban Area", "pop": 4698656, "big": true, "lon": 151.01266, "lat": -33.84715, "km": 0.0}]}, "0000309": {"centres": [{"name": "Sydney", "kind": "sua", "suaId": 30, "type": "Significant Urban Area", "pop": 4698656, "big": true, "lon": 151.02093, "lat": -33.80884, "km": 0.0}], "hospitals": [{"name": "Westmead Hospital", "cat": "Urban Major Hospital (400+ beds)", "beds": 975, "lon": 150.9872, "lat": -33.8028, "km": 2.4}]}, "0007484": {"centres": [{"name": "Sydney", "kind": "sua", "suaId": 30, "type": "Significant Urban Area", "pop": 4698656, "big": true, "lon": 151.01477, "lat": -33.80868, "km": 0.0}], "hospitals": [{"name": "Westmead Hospital", "cat": "Urban Major Hospital (400+ beds)", "beds": 975, "lon": 150.9872, "lat": -33.8028, "km": 2.6}]}, "0000052": {"centres": [{"name": "Canberra - Queanbeyan (Queanbeyan Part)", "kind": "town", "pop": 37511, "type": "Regional City", "lon": 149.22023, "lat": -35.36642, "km": 1.1}, {"name": "Crookwell", "kind": "town", "pop": 2098, "type": "Town Centre", "lon": 149.46675, "lat": -34.45982, "km": 0.7}]}, "0000051": {"centres": [{"name": "Batemans Bay", "kind": "sua", "suaId": 3, "type": "Significant Urban Area", "pop": 12263, "big": false, "lon": 150.18358, "lat": -35.70007, "km": 0.0}, {"name": "Canberra - Queanbeyan (Queanbeyan Part)", "kind": "town", "pop": 37511, "type": "Regional City", "lon": 149.22023, "lat": -35.36642, "km": 1.1}, {"name": "Bungendore", "kind": "town", "pop": 3935, "type": "Town Centre", "lon": 149.44252, "lat": -35.25243, "km": 0.6}, {"name": "Long Beach - Maloneys Beach (L)", "kind": "town", "pop": 2231, "type": "Town Centre", "lon": 150.22647, "lat": -35.69206, "km": 4.0}]}, "0000584": {"centres": [{"name": "Canberra - Queanbeyan (Queanbeyan Part)", "kind": "town", "pop": 37511, "type": "Regional City", "lon": 149.22023, "lat": -35.36642, "km": 1.3}, {"name": "Googong", "kind": "town", "pop": 6224, "type": "Town Centre", "lon": 149.23419, "lat": -35.42804, "km": 1.7}]}, "0000270": {"centres": [{"name": "Canberra - Queanbeyan (Queanbeyan Part)", "kind": "town", "pop": 37511, "type": "Regional City", "lon": 149.22023, "lat": -35.36642, "km": 4.7}]}, "0000010": {"centres": [{"name": "Sydney", "kind": "sua", "suaId": 30, "type": "Significant Urban Area", "pop": 4698656, "big": true, "lon": 151.211, "lat": -33.83945, "km": 0.0}, {"name": "Newcastle - Maitland", "kind": "sua", "suaId": 24, "type": "Significant Urban Area", "pop": 348539, "big": true, "lon": 151.69674, "lat": -32.96144, "km": 0.0}, {"name": "Central Coast", "kind": "sua", "suaId": 9, "type": "Significant Urban Area", "pop": 325255, "big": true, "lon": 151.36953, "lat": -33.35613, "km": 0.0}, {"name": "Coffs Harbour", "kind": "sua", "suaId": 10, "type": "Significant Urban Area", "pop": 51069, "big": false, "lon": 153.19361, "lat": -30.13759, "km": 0.0}, {"name": "Port Macquarie", "kind": "sua", "suaId": 27, "type": "Significant Urban Area", "pop": 47793, "big": false, "lon": 152.82133, "lat": -31.45908, "km": 0.0}, {"name": "Ballina", "kind": "sua", "suaId": 2, "type": "Significant Urban Area", "pop": 18532, "big": false, "lon": 153.52687, "lat": -28.78495, "km": 0.0}, {"name": "Gold Coast - Tweed Heads (Tweed Heads Part)", "kind": "town", "pop": 63721, "type": "Regional City", "lon": 153.52959, "lat": -28.22237, "km": 1.8}, {"name": "Raymond Terrace", "kind": "town", "pop": 14081, "type": "Major Town", "lon": 151.74576, "lat": -32.77625, "km": 0.5}, {"name": "Pottsville", "kind": "town", "pop": 7209, "type": "Major Town", "lon": 153.56107, "lat": -28.37814, "km": 3.6}, {"name": "Sandy Beach - Emerald Beach", "kind": "town", "pop": 4459, "type": "Town Centre", "lon": 153.18961, "lat": -30.15748, "km": 0.1}, {"name": "Cumbalum", "kind": "town", "pop": 2011, "type": "Town Centre", "lon": 153.53529, "lat": -28.82221, "km": 0.7}, {"name": "Ocean Shores", "kind": "town", "pop": 4818, "type": "Town Centre", "lon": 153.53666, "lat": -28.51992, "km": 0.7}, {"name": "Bangalow", "kind": "town", "pop": 2260, "type": "Town Centre", "lon": 153.52402, "lat": -28.68577, "km": 1.0}], "hospitals": [{"name": "Hornsby Ku-ring-gai Hospital", "cat": "Urban Major Hospital (400+ beds)", "beds": 400, "lon": 151.0994, "lat": -33.7025, "km": 0.2}, {"name": "Royal North Shore Hospital", "cat": "Urban Major Hospital (400+ beds)", "beds": 600, "lon": 151.1908, "lat": -33.8214, "km": 0.3}, {"name": "Tweed Hospital", "cat": "Regional Major Hospital (100+ beds)", "beds": 150, "lon": 153.5333, "lat": -28.1833, "km": 0.8}, {"name": "Coffs Harbour Hospital", "cat": "Regional Major Hospital (100+ beds)", "beds": 258, "lon": 153.1194, "lat": -30.3089, "km": 1.2}, {"name": "Gosford Hospital", "cat": "Urban Major Hospital (400+ beds)", "beds": 450, "lon": 151.3417, "lat": -33.4264, "km": 2.1}], "dests": [{"name": "Coffs Harbour Airport", "ftype": "Regional Airport", "lon": 153.1158, "lat": -30.3208, "km": 2.0}, {"name": "Port of Newcastle", "ftype": "Major Port", "lon": 151.783, "lat": -32.92, "km": 2.3}, {"name": "Port of Newcastle Intermodal", "ftype": "Major Intermodal", "lon": 151.783, "lat": -32.92, "km": 2.3}]}, "0007758": {"centres": [{"name": "Central Coast", "kind": "sua", "suaId": 9, "type": "Significant Urban Area", "pop": 325255, "big": true, "lon": 151.42857, "lat": -33.32824, "km": 0.0}]}, "0000335": {"centres": [{"name": "Central Coast", "kind": "sua", "suaId": 9, "type": "Significant Urban Area", "pop": 325255, "big": true, "lon": 151.42841, "lat": -33.32828, "km": 0.0}]}, "0007756": {"centres": [{"name": "Central Coast", "kind": "sua", "suaId": 9, "type": "Significant Urban Area", "pop": 325255, "big": true, "lon": 151.45241, "lat": -33.39278, "km": 0.0}]}, "0000030": {"centres": [{"name": "Central Coast", "kind": "sua", "suaId": 9, "type": "Significant Urban Area", "pop": 325255, "big": true, "lon": 151.4754, "lat": -33.36905, "km": 0.0}, {"name": "Morisset - Cooranbong", "kind": "town", "type": "Regional City", "pop": 22150, "lon": 151.49016, "lat": -33.09529, "km": 12.0, "endpoint": true}], "hospitals": [{"name": "Gosford Hospital", "cat": "Urban Major Hospital (400+ beds)", "beds": 450, "lon": 151.3417, "lat": -33.4264, "km": 0.4}]}, "0000679": {"centres": [{"name": "Gold Coast - Tweed Heads (Tweed Heads Part)", "kind": "town", "pop": 63721, "type": "Regional City", "lon": 153.52959, "lat": -28.22237, "km": 3.5}, {"name": "Murwillumbah", "kind": "town", "pop": 9812, "type": "Major Town", "lon": 153.40473, "lat": -28.33268, "km": 0.4}, {"name": "Pottsville", "kind": "town", "type": "Major Town", "pop": 7209, "lon": 153.56107, "lat": -28.37814, "km": 13.2, "endpoint": true}, {"name": "South Golden Beach", "kind": "town", "pop": 2219, "type": "Town Centre", "lon": 153.54318, "lat": -28.49634, "km": 2.3}, {"name": "Ocean Shores", "kind": "town", "pop": 4818, "type": "Town Centre", "lon": 153.53666, "lat": -28.51992, "km": 3.6}]}, "0000031": {"centres": [{"name": "Gold Coast - Tweed Heads (Tweed Heads Part)", "kind": "town", "pop": 63721, "type": "Regional City", "lon": 153.52959, "lat": -28.22237, "km": 4.7}], "hospitals": [{"name": "Tweed Hospital", "cat": "Regional Major Hospital (100+ beds)", "beds": 150, "lon": 153.5333, "lat": -28.1833, "km": 1.3}]}, "0007733": {"centres": [{"name": "Gold Coast - Tweed Heads (Tweed Heads Part)", "kind": "town", "pop": 63721, "type": "Regional City", "lon": 153.52959, "lat": -28.22237, "km": 2.2}], "hospitals": [{"name": "Tweed Hospital", "cat": "Regional Major Hospital (100+ beds)", "beds": 150, "lon": 153.5333, "lat": -28.1833, "km": 0.4}]}, "0000450": {"centres": [{"name": "Gold Coast - Tweed Heads (Tweed Heads Part)", "kind": "town", "pop": 63721, "type": "Regional City", "lon": 153.52959, "lat": -28.22237, "km": 3.4}, {"name": "Pottsville", "kind": "town", "pop": 7209, "type": "Major Town", "lon": 153.56107, "lat": -28.37814, "km": 0.7}]}, "0000217": {"centres": [{"name": "Newcastle - Maitland", "kind": "sua", "suaId": 24, "type": "Significant Urban Area", "pop": 348539, "big": true, "lon": 151.65077, "lat": -32.92624, "km": 0.0}, {"name": "Morisset - Cooranbong", "kind": "sua", "suaId": 20, "type": "Significant Urban Area", "pop": 22150, "big": false, "lon": 151.52548, "lat": -33.07, "km": 0.0}], "hospitals": [{"name": "John Hunter Hospital", "cat": "Urban Major Hospital (400+ beds)", "beds": 820, "lon": 151.6811, "lat": -32.9218, "km": 2.0}]}, "0000674": {"centres": [{"name": "Newcastle - Maitland", "kind": "sua", "suaId": 24, "type": "Significant Urban Area", "pop": 348539, "big": true, "lon": 151.65226, "lat": -32.96669, "km": 0.0}]}, "0000527": {"centres": [{"name": "Newcastle - Maitland", "kind": "sua", "suaId": 24, "type": "Significant Urban Area", "pop": 348539, "big": true, "lon": 151.65281, "lat": -32.93203, "km": 0.0}], "hospitals": [{"name": "John Hunter Hospital", "cat": "Urban Major Hospital (400+ beds)", "beds": 820, "lon": 151.6811, "lat": -32.9218, "km": 2.7}]}, "0000325": {"centres": [{"name": "Newcastle - Maitland", "kind": "sua", "suaId": 24, "type": "Significant Urban Area", "pop": 348539, "big": true, "lon": 151.66664, "lat": -33.02139, "km": 0.0}]}, "0007769": {"centres": [{"name": "Newcastle - Maitland", "kind": "sua", "suaId": 24, "type": "Significant Urban Area", "pop": 348539, "big": true, "lon": 151.68599, "lat": -32.947, "km": 0.0}], "hospitals": [{"name": "John Hunter Hospital", "cat": "Urban Major Hospital (400+ beds)", "beds": 820, "lon": 151.6811, "lat": -32.9218, "km": 2.8}]}, "0000223": {"centres": [{"name": "Newcastle - Maitland", "kind": "sua", "suaId": 24, "type": "Significant Urban Area", "pop": 348539, "big": true, "lon": 151.65784, "lat": -32.93962, "km": 0.0}], "hospitals": [{"name": "John Hunter Hospital", "cat": "Urban Major Hospital (400+ beds)", "beds": 820, "lon": 151.6811, "lat": -32.9218, "km": 1.7}]}, "0007770": {"centres": [{"name": "Newcastle - Maitland", "kind": "sua", "suaId": 24, "type": "Significant Urban Area", "pop": 348539, "big": true, "lon": 151.66544, "lat": -32.91415, "km": 0.0}], "hospitals": [{"name": "John Hunter Hospital", "cat": "Urban Major Hospital (400+ beds)", "beds": 820, "lon": 151.6811, "lat": -32.9218, "km": 0.3}]}, "0000082": {"centres": [{"name": "Newcastle - Maitland", "kind": "sua", "suaId": 24, "type": "Significant Urban Area", "pop": 348539, "big": true, "lon": 151.6829, "lat": -32.90371, "km": 0.0}], "hospitals": [{"name": "John Hunter Hospital", "cat": "Urban Major Hospital (400+ beds)", "beds": 820, "lon": 151.6811, "lat": -32.9218, "km": 2.0}], "dests": [{"name": "Port of Newcastle", "ftype": "Major Port", "lon": 151.783, "lat": -32.92, "km": 2.4}, {"name": "Port of Newcastle Intermodal", "ftype": "Major Intermodal", "lon": 151.783, "lat": -32.92, "km": 2.4}]}, "0000023": {"centres": [{"name": "Newcastle - Maitland", "kind": "sua", "suaId": 24, "type": "Significant Urban Area", "pop": 348539, "big": true, "lon": 151.69557, "lat": -32.89476, "km": 0.0}], "hospitals": [{"name": "John Hunter Hospital", "cat": "Urban Major Hospital (400+ beds)", "beds": 820, "lon": 151.6811, "lat": -32.9218, "km": 1.4}]}, "0000603": {"centres": [{"name": "Newcastle - Maitland", "kind": "sua", "suaId": 24, "type": "Significant Urban Area", "pop": 348539, "big": true, "lon": 151.68822, "lat": -32.94056, "km": 0.0}], "hospitals": [{"name": "John Hunter Hospital", "cat": "Urban Major Hospital (400+ beds)", "beds": 820, "lon": 151.6811, "lat": -32.9218, "km": 2.2}]}, "0000188": {"centres": [{"name": "Newcastle - Maitland", "kind": "sua", "suaId": 24, "type": "Significant Urban Area", "pop": 348539, "big": true, "lon": 151.76914, "lat": -32.92839, "km": 0.0}], "hospitals": [{"name": "John Hunter Hospital", "cat": "Urban Major Hospital (400+ beds)", "beds": 820, "lon": 151.6811, "lat": -32.9218, "km": 2.4}], "dests": [{"name": "Port of Newcastle", "ftype": "Major Port", "lon": 151.783, "lat": -32.92, "km": 1.2}, {"name": "Port of Newcastle Intermodal", "ftype": "Major Intermodal", "lon": 151.783, "lat": -32.92, "km": 1.2}]}, "0000326": {"centres": [{"name": "Newcastle - Maitland", "kind": "sua", "suaId": 24, "type": "Significant Urban Area", "pop": 348539, "big": true, "lon": 151.71245, "lat": -32.93443, "km": 0.0}]}, "0000604": {"centres": [{"name": "Newcastle - Maitland", "kind": "sua", "suaId": 24, "type": "Significant Urban Area", "pop": 348539, "big": true, "lon": 151.74689, "lat": -32.924, "km": 0.0}], "dests": [{"name": "Port of Newcastle", "ftype": "Major Port", "lon": 151.783, "lat": -32.92, "km": 2.5}, {"name": "Port of Newcastle Intermodal", "ftype": "Major Intermodal", "lon": 151.783, "lat": -32.92, "km": 2.5}]}, "0007777": {"centres": [{"name": "Newcastle - Maitland", "kind": "sua", "suaId": 24, "type": "Significant Urban Area", "pop": 348539, "big": true, "lon": 151.75728, "lat": -32.94302, "km": 0.0}], "dests": [{"name": "Port of Newcastle", "ftype": "Major Port", "lon": 151.783, "lat": -32.92, "km": 0.8}, {"name": "Port of Newcastle Intermodal", "ftype": "Major Intermodal", "lon": 151.783, "lat": -32.92, "km": 0.8}]}, "0000001": {"centres": [{"name": "Sydney", "kind": "sua", "suaId": 30, "type": "Significant Urban Area", "pop": 4698656, "big": true, "lon": 151.11383, "lat": -33.9911, "km": 0.0}, {"name": "Wollongong", "kind": "sua", "suaId": 35, "type": "Significant Urban Area", "pop": 280153, "big": false, "lon": 150.84392, "lat": -34.69593, "km": 0.0}, {"name": "Nowra - Bomaderry", "kind": "sua", "suaId": 25, "type": "Significant Urban Area", "pop": 33583, "big": false, "lon": 150.59405, "lat": -34.84259, "km": 0.0}, {"name": "Ulladulla", "kind": "sua", "suaId": 33, "type": "Significant Urban Area", "pop": 14396, "big": false, "lon": 150.44091, "lat": -35.39082, "km": 0.0}, {"name": "Batemans Bay", "kind": "sua", "suaId": 3, "type": "Significant Urban Area", "pop": 12263, "big": false, "lon": 150.18389, "lat": -35.6998, "km": 0.0}, {"name": "St Georges Basin - Sanctuary Point", "kind": "sua", "suaId": 29, "type": "Significant Urban Area", "pop": 11000, "big": false, "lon": 150.53992, "lat": -35.0851, "km": 0.0}, {"name": "Kiama", "kind": "town", "pop": 14761, "type": "Major Town", "lon": 150.84861, "lat": -34.65998, "km": 0.3}, {"name": "Merimbula", "kind": "town", "pop": 8220, "type": "Major Town", "lon": 149.90962, "lat": -36.886, "km": 3.3}, {"name": "Berry", "kind": "town", "pop": 2467, "type": "Town Centre", "lon": 150.68551, "lat": -34.77353, "km": 0.1}, {"name": "Moruya", "kind": "town", "pop": 2762, "type": "Town Centre", "lon": 150.07862, "lat": -35.91391, "km": 0.2}, {"name": "Eden", "kind": "town", "pop": 3227, "type": "Town Centre", "lon": 149.90448, "lat": -37.05369, "km": 0.3}, {"name": "Narooma", "kind": "town", "pop": 3395, "type": "Town Centre", "lon": 150.12683, "lat": -36.20716, "km": 0.3}, {"name": "Dalmeny", "kind": "town", "pop": 2194, "type": "Town Centre", "lon": 150.11478, "lat": -36.16845, "km": 0.6}], "hospitals": [{"name": "Wollongong Hospital", "cat": "Regional Major Hospital (100+ beds)", "beds": 500, "lon": 150.8931, "lat": -34.4244, "km": 0.0}, {"name": "Shoalhaven District Memorial Hospital", "cat": "Regional Major Hospital (100+ beds)", "beds": 160, "lon": 150.605, "lat": -34.875, "km": 0.0}, {"name": "St George Hospital", "cat": "Urban Major Hospital (400+ beds)", "beds": 480, "lon": 151.1328, "lat": -33.9669, "km": 0.4}, {"name": "Royal Prince Alfred Hospital", "cat": "Urban Major Hospital (400+ beds)", "beds": 1200, "lon": 151.1819, "lat": -33.8889, "km": 0.5}, {"name": "St Vincents Hospital Sydney", "cat": "Urban Major Hospital (400+ beds)", "beds": 450, "lon": 151.22, "lat": -33.88, "km": 2.4}], "dests": [{"name": "Merimbula Airport", "ftype": "Regional Airport", "lon": 149.9011, "lat": -36.9086, "km": 2.3}, {"name": "Sydney Kingsford Smith Airport (SYD)", "ftype": "International Airport", "lon": 151.1772, "lat": -33.9461, "km": 2.6}]}, "0006006": {"centres": [{"name": "Sydney", "kind": "sua", "suaId": 30, "type": "Significant Urban Area", "pop": 4698656, "big": true, "lon": 150.9933, "lat": -34.14256, "km": 0.0}, {"name": "Wollongong", "kind": "sua", "suaId": 35, "type": "Significant Urban Area", "pop": 280153, "big": false, "lon": 150.82285, "lat": -34.57391, "km": 0.0}, {"name": "Kiama", "kind": "town", "type": "Major Town", "pop": 14761, "lon": 150.84861, "lat": -34.65998, "km": 10.4, "endpoint": true}, {"name": "Helensburgh", "kind": "town", "pop": 6304, "type": "Town Centre", "lon": 150.9903, "lat": -34.18736, "km": 1.8}], "hospitals": [{"name": "Wollongong Hospital", "cat": "Regional Major Hospital (100+ beds)", "beds": 500, "lon": 150.8931, "lat": -34.4244, "km": 1.5}]}, "0000613": {"centres": [{"name": "Wollongong", "kind": "sua", "suaId": 35, "type": "Significant Urban Area", "pop": 280153, "big": false, "lon": 150.83245, "lat": -34.47402, "km": 0.0}], "dests": [{"name": "Port Kembla", "ftype": "Major Port", "lon": 150.901, "lat": -34.472, "km": 2.1}]}, "0000295": {"centres": [{"name": "Wollongong", "kind": "sua", "suaId": 35, "type": "Significant Urban Area", "pop": 280153, "big": false, "lon": 150.84965, "lat": -34.45008, "km": 0.0}], "dests": [{"name": "Port Kembla", "ftype": "Major Port", "lon": 150.901, "lat": -34.472, "km": 0.5}]}, "0000602": {"centres": [{"name": "Wollongong", "kind": "sua", "suaId": 35, "type": "Significant Urban Area", "pop": 280153, "big": false, "lon": 150.87543, "lat": -34.44575, "km": 0.0}], "hospitals": [{"name": "Wollongong Hospital", "cat": "Regional Major Hospital (100+ beds)", "beds": 500, "lon": 150.8931, "lat": -34.4244, "km": 2.8}]}, "0000522": {"centres": [{"name": "Wollongong", "kind": "sua", "suaId": 35, "type": "Significant Urban Area", "pop": 280153, "big": false, "lon": 150.84516, "lat": -34.58897, "km": 0.0}], "dests": [{"name": "Port Kembla", "ftype": "Major Port", "lon": 150.901, "lat": -34.472, "km": 1.5}]}, "0000581": {"centres": [{"name": "Wollongong", "kind": "sua", "suaId": 35, "type": "Significant Urban Area", "pop": 280153, "big": false, "lon": 150.89765, "lat": -34.43605, "km": 0.0}], "hospitals": [{"name": "Wollongong Hospital", "cat": "Regional Major Hospital (100+ beds)", "beds": 500, "lon": 150.8931, "lat": -34.4244, "km": 0.6}], "dests": [{"name": "Port Kembla", "ftype": "Major Port", "lon": 150.901, "lat": -34.472, "km": 2.6}]}, "0000020": {"centres": [{"name": "Albury - Wodonga", "kind": "sua", "suaId": 0, "type": "Significant Urban Area", "pop": 53677, "big": false, "lon": 147.0373, "lat": -36.10018, "km": 0.0}, {"name": "Howlong", "kind": "town", "pop": 2654, "type": "Town Centre", "lon": 146.63438, "lat": -35.98282, "km": 0.8}, {"name": "Deniliquin", "kind": "town", "pop": 6431, "type": "Town Centre", "lon": 144.95493, "lat": -35.54307, "km": 3.3}], "hospitals": [{"name": "Albury Base Hospital", "cat": "Regional Major Hospital (100+ beds)", "beds": 100, "lon": 146.9133, "lat": -36.0739, "km": 1.0}], "dests": [{"name": "Albury Airport", "ftype": "Regional Airport", "lon": 146.9581, "lat": -36.0678, "km": 1.3}]}, "0000125": {"centres": [{"name": "Albury - Wodonga", "kind": "sua", "suaId": 0, "type": "Significant Urban Area", "pop": 53677, "big": false, "lon": 146.93369, "lat": -36.05216, "km": 0.0}], "dests": [{"name": "Albury Airport", "ftype": "Regional Airport", "lon": 146.9581, "lat": -36.0678, "km": 2.8}]}, "0000002": {"centres": [{"name": "Sydney", "kind": "sua", "suaId": 30, "type": "Significant Urban Area", "pop": 4698656, "big": true, "lon": 150.85572, "lat": -33.98645, "km": 0.0}, {"name": "Albury - Wodonga", "kind": "sua", "suaId": 0, "type": "Significant Urban Area", "pop": 53677, "big": false, "lon": 146.97502, "lat": -36.03633, "km": 0.0}, {"name": "Goulburn", "kind": "sua", "suaId": 13, "type": "Significant Urban Area", "pop": 23963, "big": false, "lon": 149.69232, "lat": -34.77584, "km": 0.0}, {"name": "Bowral - Mittagong", "kind": "sua", "suaId": 5, "type": "Significant Urban Area", "pop": 23762, "big": false, "lon": 150.31192, "lat": -34.4969, "km": 0.0}, {"name": "Ulladulla", "kind": "town", "pop": 14396, "type": "Major Town", "lon": 150.46111, "lat": -35.35504, "km": 4.4}, {"name": "Wilton", "kind": "town", "pop": 2959, "type": "Town Centre", "lon": 150.6865, "lat": -34.23052, "km": 1.5}, {"name": "Bargo", "kind": "town", "pop": 3314, "type": "Town Centre", "lon": 150.57653, "lat": -34.2891, "km": 2.8}, {"name": "Yass", "kind": "town", "pop": 5837, "type": "Town Centre", "lon": 148.9132, "lat": -34.83819, "km": 3.4}, {"name": "Hill Top", "kind": "town", "pop": 2262, "type": "Town Centre", "lon": 150.49288, "lat": -34.35379, "km": 4.2}], "hospitals": [{"name": "Liverpool Hospital", "cat": "Urban Major Hospital (400+ beds)", "beds": 877, "lon": 150.9264, "lat": -33.9297, "km": 0.8}, {"name": "Albury Base Hospital", "cat": "Regional Major Hospital (100+ beds)", "beds": 100, "lon": 146.9133, "lat": -36.0739, "km": 1.3}, {"name": "Goulburn Base Hospital", "cat": "Regional Major Hospital (100+ beds)", "beds": 120, "lon": 149.7167, "lat": -34.75, "km": 2.9}], "dests": [{"name": "Enfield Intermodal", "ftype": "Major Intermodal", "lon": 151.1, "lat": -33.883, "km": 0.5}, {"name": "Albury Airport", "ftype": "Regional Airport", "lon": 146.9581, "lat": -36.0678, "km": 1.3}, {"name": "Moorebank Intermodal", "ftype": "Major Intermodal", "lon": 150.937, "lat": -33.935, "km": 1.9}]}, "0000688": {"centres": [{"name": "Albury - Wodonga", "kind": "sua", "suaId": 0, "type": "Significant Urban Area", "pop": 53677, "big": false, "lon": 146.93374, "lat": -36.05218, "km": 0.0}], "hospitals": [{"name": "Albury Base Hospital", "cat": "Regional Major Hospital (100+ beds)", "beds": 100, "lon": 146.9133, "lat": -36.0739, "km": 1.1}], "dests": [{"name": "Albury Airport", "ftype": "Regional Airport", "lon": 146.9581, "lat": -36.0678, "km": 2.4}]}, "0000151": {"centres": [{"name": "Coffs Harbour", "kind": "sua", "suaId": 10, "type": "Significant Urban Area", "pop": 51069, "big": false, "lon": 153.10284, "lat": -30.29435, "km": 0.0}, {"name": "Grafton", "kind": "town", "type": "Major Town", "pop": 17155, "lon": 152.93256, "lat": -29.70965, "km": 5.8, "endpoint": true}], "hospitals": [{"name": "Coffs Harbour Hospital", "cat": "Regional Major Hospital (100+ beds)", "beds": 258, "lon": 153.1194, "lat": -30.3089, "km": 1.5}], "dests": [{"name": "Coffs Harbour Airport", "ftype": "Regional Airport", "lon": 153.1158, "lat": -30.3208, "km": 2.7}]}, "0007741": {"centres": [{"name": "Coffs Harbour", "kind": "sua", "suaId": 10, "type": "Significant Urban Area", "pop": 51069, "big": false, "lon": 153.09848, "lat": -30.32578, "km": 0.0}], "hospitals": [{"name": "Coffs Harbour Hospital", "cat": "Regional Major Hospital (100+ beds)", "beds": 258, "lon": 153.1194, "lat": -30.3089, "km": 2.8}], "dests": [{"name": "Coffs Harbour Airport", "ftype": "Regional Airport", "lon": 153.1158, "lat": -30.3208, "km": 1.8}]}, "0000540": {"centres": [{"name": "Coffs Harbour", "kind": "sua", "suaId": 10, "type": "Significant Urban Area", "pop": 51069, "big": false, "lon": 153.06392, "lat": -30.35503, "km": 0.0}], "hospitals": [{"name": "Coffs Harbour Hospital", "cat": "Regional Major Hospital (100+ beds)", "beds": 258, "lon": 153.1194, "lat": -30.3089, "km": 0.4}], "dests": [{"name": "Coffs Harbour Airport", "ftype": "Regional Airport", "lon": 153.1158, "lat": -30.3208, "km": 0.6}]}, "0007745": {"centres": [{"name": "Coffs Harbour", "kind": "sua", "suaId": 10, "type": "Significant Urban Area", "pop": 51069, "big": false, "lon": 153.13234, "lat": -30.28075, "km": 0.0}], "hospitals": [{"name": "Coffs Harbour Hospital", "cat": "Regional Major Hospital (100+ beds)", "beds": 258, "lon": 153.1194, "lat": -30.3089, "km": 0.8}], "dests": [{"name": "Coffs Harbour Airport", "ftype": "Regional Airport", "lon": 153.1158, "lat": -30.3208, "km": 2.1}]}, "0000009": {"centres": [{"name": "Newcastle - Maitland", "kind": "sua", "suaId": 24, "type": "Significant Urban Area", "pop": 348539, "big": true, "lon": 151.68266, "lat": -32.82212, "km": 0.0}, {"name": "Tamworth", "kind": "sua", "suaId": 31, "type": "Significant Urban Area", "pop": 35415, "big": false, "lon": 150.93636, "lat": -31.0981, "km": 0.0}, {"name": "Armidale", "kind": "sua", "suaId": 1, "type": "Significant Urban Area", "pop": 21312, "big": false, "lon": 151.62414, "lat": -30.52732, "km": 0.0}, {"name": "Singleton", "kind": "sua", "suaId": 28, "type": "Significant Urban Area", "pop": 14229, "big": false, "lon": 151.17398, "lat": -32.55977, "km": 0.0}, {"name": "Muswellbrook", "kind": "sua", "suaId": 22, "type": "Significant Urban Area", "pop": 10901, "big": false, "lon": 150.89298, "lat": -32.27351, "km": 0.0}, {"name": "Maitland (NSW)", "kind": "town", "pop": 89597, "type": "Regional City", "lon": 151.58718, "lat": -32.75009, "km": 0.3}, {"name": "Raymond Terrace", "kind": "town", "type": "Major Town", "pop": 14081, "lon": 151.74576, "lat": -32.77625, "km": 8.1, "endpoint": true}, {"name": "Scone", "kind": "town", "pop": 5013, "type": "Town Centre", "lon": 150.85828, "lat": -32.04349, "km": 0.2}, {"name": "Guyra", "kind": "town", "pop": 2077, "type": "Town Centre", "lon": 151.6728, "lat": -30.22483, "km": 0.3}, {"name": "Tenterfield", "kind": "town", "pop": 2826, "type": "Town Centre", "lon": 152.01888, "lat": -29.05015, "km": 0.4}, {"name": "Uralla", "kind": "town", "pop": 2385, "type": "Town Centre", "lon": 151.49315, "lat": -30.64209, "km": 0.5}, {"name": "Greta", "kind": "town", "pop": 3230, "type": "Town Centre", "lon": 151.39244, "lat": -32.67581, "km": 0.6}], "hospitals": [{"name": "Maitland Hospital", "cat": "Regional Major Hospital (100+ beds)", "beds": 120, "lon": 151.5633, "lat": -32.7292, "km": 1.4}, {"name": "Tamworth Hospital", "cat": "Regional Major Hospital (100+ beds)", "beds": 220, "lon": 150.9208, "lat": -31.0928, "km": 1.5}, {"name": "Armidale Hospital", "cat": "Regional Major Hospital (100+ beds)", "beds": 130, "lon": 151.6672, "lat": -30.515, "km": 2.4}], "dests": [{"name": "Armidale Airport", "ftype": "Regional Airport", "lon": 151.6172, "lat": -30.5281, "km": 0.6}]}, "0000101": {"centres": [{"name": "Newcastle - Maitland", "kind": "sua", "suaId": 24, "type": "Significant Urban Area", "pop": 348539, "big": true, "lon": 151.57193, "lat": -32.71271, "km": 0.0}, {"name": "Maitland (NSW)", "kind": "town", "pop": 89597, "type": "Regional City", "lon": 151.58718, "lat": -32.75009, "km": 0.6}, {"name": "Dungog", "kind": "town", "pop": 2169, "type": "Town Centre", "lon": 151.75053, "lat": -32.40589, "km": 0.5}], "hospitals": [{"name": "Maitland Hospital", "cat": "Regional Major Hospital (100+ beds)", "beds": 120, "lon": 151.5633, "lat": -32.7292, "km": 0.6}]}, "0002120": {"centres": [{"name": "Newcastle - Maitland", "kind": "sua", "suaId": 24, "type": "Significant Urban Area", "pop": 348539, "big": true, "lon": 151.58226, "lat": -32.75578, "km": 0.0}, {"name": "Maitland (NSW)", "kind": "town", "pop": 89597, "type": "Regional City", "lon": 151.58718, "lat": -32.75009, "km": 0.6}]}, "0007782": {"centres": [{"name": "Newcastle - Maitland", "kind": "sua", "suaId": 24, "type": "Significant Urban Area", "pop": 348539, "big": true, "lon": 151.55163, "lat": -32.73902, "km": 0.0}, {"name": "Maitland (NSW)", "kind": "town", "pop": 89597, "type": "Regional City", "lon": 151.58718, "lat": -32.75009, "km": 3.5}], "hospitals": [{"name": "Maitland Hospital", "cat": "Regional Major Hospital (100+ beds)", "beds": 120, "lon": 151.5633, "lat": -32.7292, "km": 1.0}]}, "0000195": {"centres": [{"name": "Newcastle - Maitland", "kind": "sua", "suaId": 24, "type": "Significant Urban Area", "pop": 348539, "big": true, "lon": 151.52733, "lat": -32.7665, "km": 0.0}, {"name": "Kurri Kurri", "kind": "town", "pop": 20015, "type": "Regional City", "lon": 151.47184, "lat": -32.81008, "km": 1.3}, {"name": "Maitland (NSW)", "kind": "town", "pop": 89597, "type": "Regional City", "lon": 151.58718, "lat": -32.75009, "km": 3.5}], "hospitals": [{"name": "Maitland Hospital", "cat": "Regional Major Hospital (100+ beds)", "beds": 120, "lon": 151.5633, "lat": -32.7292, "km": 1.6}]}, "0000104": {"centres": [{"name": "Newcastle - Maitland", "kind": "sua", "suaId": 24, "type": "Significant Urban Area", "pop": 348539, "big": true, "lon": 151.5815, "lat": -32.74671, "km": 0.0}, {"name": "Medowie", "kind": "sua", "suaId": 19, "type": "Significant Urban Area", "pop": 10019, "big": false, "lon": 151.85989, "lat": -32.77203, "km": 0.0}, {"name": "Maitland (NSW)", "kind": "town", "pop": 89597, "type": "Regional City", "lon": 151.58718, "lat": -32.75009, "km": 0.6}, {"name": "Raymond Terrace", "kind": "town", "pop": 14081, "type": "Major Town", "lon": 151.74576, "lat": -32.77625, "km": 1.9}], "hospitals": [{"name": "Maitland Hospital", "cat": "Regional Major Hospital (100+ beds)", "beds": 120, "lon": 151.5633, "lat": -32.7292, "km": 2.6}]}, "0000102": {"centres": [{"name": "Newcastle - Maitland", "kind": "sua", "suaId": 24, "type": "Significant Urban Area", "pop": 348539, "big": true, "lon": 151.62667, "lat": -32.72488, "km": 0.0}, {"name": "Maitland (NSW)", "kind": "town", "pop": 89597, "type": "Regional City", "lon": 151.58718, "lat": -32.75009, "km": 0.7}], "hospitals": [{"name": "Maitland Hospital", "cat": "Regional Major Hospital (100+ beds)", "beds": 120, "lon": 151.5633, "lat": -32.7292, "km": 2.9}]}, "0000076": {"centres": [{"name": "Armidale", "kind": "sua", "suaId": 1, "type": "Significant Urban Area", "pop": 21312, "big": false, "lon": 151.67931, "lat": -30.52059, "km": 0.0}, {"name": "Coffs Harbour", "kind": "town", "type": "Regional City", "pop": 51069, "lon": 153.09574, "lat": -30.3123, "km": 18.8, "endpoint": true}, {"name": "Bellingen", "kind": "town", "pop": 3201, "type": "Town Centre", "lon": 152.89934, "lat": -30.45177, "km": 0.2}, {"name": "Urunga", "kind": "town", "pop": 2731, "type": "Town Centre", "lon": 153.01076, "lat": -30.4976, "km": 3.8}], "hospitals": [{"name": "Armidale Hospital", "cat": "Regional Major Hospital (100+ beds)", "beds": 130, "lon": 151.6672, "lat": -30.515, "km": 0.3}], "dests": [{"name": "Armidale Airport", "ftype": "Regional Airport", "lon": 151.6172, "lat": -30.5281, "km": 0.7}]}, "0000124": {"centres": [{"name": "Armidale", "kind": "sua", "suaId": 1, "type": "Significant Urban Area", "pop": 21312, "big": false, "lon": 151.58542, "lat": -30.50998, "km": 0.0}], "hospitals": [{"name": "Armidale Hospital", "cat": "Regional Major Hospital (100+ beds)", "beds": 130, "lon": 151.6672, "lat": -30.515, "km": 2.0}], "dests": [{"name": "Armidale Airport", "ftype": "Regional Airport", "lon": 151.6172, "lat": -30.5281, "km": 2.9}]}, "0007708": {"centres": [{"name": "Armidale", "kind": "sua", "suaId": 1, "type": "Significant Urban Area", "pop": 21312, "big": false, "lon": 151.66961, "lat": -30.51246, "km": 0.0}], "hospitals": [{"name": "Armidale Hospital", "cat": "Regional Major Hospital (100+ beds)", "beds": 130, "lon": 151.6672, "lat": -30.515, "km": 0.1}]}, "0000007": {"centres": [{"name": "Orange", "kind": "sua", "suaId": 26, "type": "Significant Urban Area", "pop": 40127, "big": false, "lon": 149.08652, "lat": -33.28149, "km": 0.0}, {"name": "Dubbo", "kind": "sua", "suaId": 11, "type": "Significant Urban Area", "pop": 38783, "big": false, "lon": 148.64609, "lat": -32.25947, "km": 0.0}, {"name": "Bathurst", "kind": "sua", "suaId": 4, "type": "Significant Urban Area", "pop": 36230, "big": false, "lon": 149.56518, "lat": -33.42033, "km": 0.0}, {"name": "Narromine", "kind": "town", "pop": 3507, "type": "Town Centre", "lon": 148.23653, "lat": -32.22581, "km": 0.2}, {"name": "Wellington", "kind": "town", "pop": 4581, "type": "Town Centre", "lon": 148.94924, "lat": -32.5564, "km": 0.4}], "hospitals": [{"name": "Dubbo Base Hospital", "cat": "Regional Major Hospital (100+ beds)", "beds": 198, "lon": 148.61, "lat": -32.25, "km": 0.6}, {"name": "Bourke District Hospital", "cat": "Remote Major Hospital (15+ beds)", "beds": 20, "lon": 145.9333, "lat": -30.0833, "km": 0.8}, {"name": "Bathurst Base Hospital", "cat": "Regional Major Hospital (100+ beds)", "beds": 140, "lon": 149.5783, "lat": -33.4206, "km": 1.2}, {"name": "Orange Health Service", "cat": "Regional Major Hospital (100+ beds)", "beds": 200, "lon": 149.1, "lat": -33.2883, "km": 1.5}], "dests": [{"name": "Dubbo City Airport", "ftype": "Regional Airport", "lon": 148.5747, "lat": -32.2167, "km": 1.2}]}, "0000006": {"centres": [{"name": "Bathurst", "kind": "sua", "suaId": 4, "type": "Significant Urban Area", "pop": 36230, "big": false, "lon": 149.56513, "lat": -33.42041, "km": 0.0}, {"name": "Cowra", "kind": "town", "pop": 8254, "type": "Major Town", "lon": 148.67271, "lat": -33.83857, "km": 0.8}, {"name": "Grenfell", "kind": "town", "pop": 2022, "type": "Town Centre", "lon": 148.15538, "lat": -33.89777, "km": 0.4}, {"name": "Blayney", "kind": "town", "pop": 2997, "type": "Town Centre", "lon": 149.25049, "lat": -33.52958, "km": 0.5}, {"name": "West Wyalong", "kind": "town", "pop": 2698, "type": "Town Centre", "lon": 147.20728, "lat": -33.91905, "km": 1.1}, {"name": "Hay", "kind": "town", "pop": 2208, "type": "Town Centre", "lon": 144.83828, "lat": -34.51344, "km": 1.6}], "hospitals": [{"name": "Cowra District Hospital", "cat": "Remote Major Hospital (15+ beds)", "beds": 30, "lon": 148.6833, "lat": -33.8333, "km": 0.3}, {"name": "Bathurst Base Hospital", "cat": "Regional Major Hospital (100+ beds)", "beds": 140, "lon": 149.5783, "lat": -33.4206, "km": 1.2}]}, "0000054": {"centres": [{"name": "Bathurst", "kind": "sua", "suaId": 4, "type": "Significant Urban Area", "pop": 36230, "big": false, "lon": 149.57662, "lat": -33.42885, "km": 0.0}, {"name": "Goulburn", "kind": "sua", "suaId": 13, "type": "Significant Urban Area", "pop": 23963, "big": false, "lon": 149.71121, "lat": -34.7455, "km": 0.0}, {"name": "Crookwell", "kind": "town", "pop": 2098, "type": "Town Centre", "lon": 149.46675, "lat": -34.45982, "km": 0.4}], "hospitals": [{"name": "Bathurst Base Hospital", "cat": "Regional Major Hospital (100+ beds)", "beds": 140, "lon": 149.5783, "lat": -33.4206, "km": 0.2}, {"name": "Goulburn Base Hospital", "cat": "Regional Major Hospital (100+ beds)", "beds": 120, "lon": 149.7167, "lat": -34.75, "km": 0.2}]}, "0000253": {"centres": [{"name": "Bathurst", "kind": "sua", "suaId": 4, "type": "Significant Urban Area", "pop": 36230, "big": false, "lon": 149.6157, "lat": -33.4284, "km": 0.0}, {"name": "Oberon", "kind": "town", "pop": 2540, "type": "Town Centre", "lon": 149.86121, "lat": -33.70311, "km": 0.3}]}, "0007299": {"centres": [{"name": "Sydney", "kind": "sua", "suaId": 30, "type": "Significant Urban Area", "pop": 4698656, "big": true, "lon": 150.32844, "lat": -33.72267, "km": 0.0}, {"name": "Blue Mountains", "kind": "town", "pop": 30049, "type": "Regional City", "lon": 150.38006, "lat": -33.72086, "km": 4.6}]}, "0002039": {"centres": [{"name": "Sydney", "kind": "sua", "suaId": 30, "type": "Significant Urban Area", "pop": 4698656, "big": true, "lon": 150.35274, "lat": -33.7092, "km": 0.0}, {"name": "Blue Mountains", "kind": "town", "pop": 30049, "type": "Regional City", "lon": 150.38006, "lat": -33.72086, "km": 2.8}]}, "0000260": {"centres": [{"name": "Bowral - Mittagong", "kind": "sua", "suaId": 5, "type": "Significant Urban Area", "pop": 23762, "big": false, "lon": 150.4966, "lat": -34.4159, "km": 0.0}, {"name": "Moss Vale", "kind": "town", "pop": 8774, "type": "Major Town", "lon": 150.38198, "lat": -34.54944, "km": 0.4}]}, "0000261": {"centres": [{"name": "Nowra - Bomaderry", "kind": "sua", "suaId": 25, "type": "Significant Urban Area", "pop": 33583, "big": false, "lon": 150.57119, "lat": -34.82469, "km": 0.0}, {"name": "Bowral - Mittagong", "kind": "sua", "suaId": 5, "type": "Significant Urban Area", "pop": 23762, "big": false, "lon": 150.4403, "lat": -34.50166, "km": 0.0}]}, "0007639": {"centres": [{"name": "Bowral - Mittagong", "kind": "sua", "suaId": 5, "type": "Significant Urban Area", "pop": 23762, "big": false, "lon": 150.41565, "lat": -34.48457, "km": 0.0}]}, "0000258": {"centres": [{"name": "Bowral - Mittagong", "kind": "sua", "suaId": 5, "type": "Significant Urban Area", "pop": 23762, "big": false, "lon": 150.42055, "lat": -34.44152, "km": 0.0}]}, "0000181": {"centres": [{"name": "Sydney", "kind": "sua", "suaId": 30, "type": "Significant Urban Area", "pop": 4698656, "big": true, "lon": 150.83459, "lat": -33.61501, "km": 0.0}, {"name": "Newcastle - Maitland", "kind": "sua", "suaId": 24, "type": "Significant Urban Area", "pop": 348539, "big": true, "lon": 151.34407, "lat": -32.8384, "km": 0.0}, {"name": "Cessnock", "kind": "town", "pop": 23211, "type": "Regional City", "lon": 151.34816, "lat": -32.82975, "km": 0.8}, {"name": "Singleton", "kind": "town", "type": "Major Town", "pop": 14229, "lon": 151.16331, "lat": -32.55274, "km": 8.7, "endpoint": true}, {"name": "Pitt Town", "kind": "town", "pop": 3325, "type": "Town Centre", "lon": 150.86451, "lat": -33.57537, "km": 1.1}]}, "0000220": {"centres": [{"name": "Newcastle - Maitland", "kind": "sua", "suaId": 24, "type": "Significant Urban Area", "pop": 348539, "big": true, "lon": 151.5932, "lat": -33.01328, "km": 0.0}, {"name": "Morisset - Cooranbong", "kind": "sua", "suaId": 20, "type": "Significant Urban Area", "pop": 22150, "big": false, "lon": 151.48574, "lat": -32.98426, "km": 0.0}, {"name": "Cessnock", "kind": "town", "pop": 23211, "type": "Regional City", "lon": 151.34816, "lat": -32.82975, "km": 0.7}, {"name": "North Rothbury", "kind": "town", "pop": 2283, "type": "Town Centre", "lon": 151.35793, "lat": -32.67761, "km": 0.8}, {"name": "Branxton", "kind": "town", "pop": 2878, "type": "Town Centre", "lon": 151.35578, "lat": -32.65652, "km": 1.2}, {"name": "Greta", "kind": "town", "pop": 3230, "type": "Town Centre", "lon": 151.39244, "lat": -32.67581, "km": 3.0}]}, "0004057": {"centres": [{"name": "Cessnock", "kind": "town", "pop": 23211, "type": "Regional City", "lon": 151.34816, "lat": -32.82975, "km": 4.9}, {"name": "Greta", "kind": "town", "pop": 3230, "type": "Town Centre", "lon": 151.39244, "lat": -32.67581, "km": 4.8}]}, "0000588": {"centres": [{"name": "Newcastle - Maitland", "kind": "sua", "suaId": 24, "type": "Significant Urban Area", "pop": 348539, "big": true, "lon": 151.65197, "lat": -32.81197, "km": 0.0}, {"name": "Kurri Kurri", "kind": "town", "pop": 20015, "type": "Regional City", "lon": 151.47184, "lat": -32.81008, "km": 0.7}, {"name": "Cessnock", "kind": "town", "pop": 23211, "type": "Regional City", "lon": 151.34816, "lat": -32.82975, "km": 0.9}, {"name": "Raymond Terrace", "kind": "town", "type": "Major Town", "pop": 14081, "lon": 151.74576, "lat": -32.77625, "km": 9.4, "endpoint": true}]}, "0000017": {"centres": [{"name": "Dubbo", "kind": "sua", "suaId": 11, "type": "Significant Urban Area", "pop": 38783, "big": false, "lon": 148.60701, "lat": -32.2436, "km": 0.0}, {"name": "Parkes", "kind": "town", "pop": 9832, "type": "Major Town", "lon": 148.17639, "lat": -33.14102, "km": 0.5}, {"name": "Moree", "kind": "town", "pop": 7070, "type": "Major Town", "lon": 149.84107, "lat": -29.47786, "km": 0.7}, {"name": "Coonabarabran", "kind": "town", "pop": 2387, "type": "Town Centre", "lon": 149.27654, "lat": -31.27294, "km": 0.1}, {"name": "Forbes", "kind": "town", "pop": 6837, "type": "Town Centre", "lon": 148.00647, "lat": -33.38474, "km": 0.3}, {"name": "Narrabri", "kind": "town", "pop": 5499, "type": "Town Centre", "lon": 149.77456, "lat": -30.33011, "km": 0.4}, {"name": "Narrandera", "kind": "town", "pop": 3783, "type": "Town Centre", "lon": 146.55303, "lat": -34.74359, "km": 0.4}, {"name": "West Wyalong", "kind": "town", "pop": 2698, "type": "Town Centre", "lon": 147.20728, "lat": -33.91905, "km": 1.1}], "hospitals": [{"name": "Dubbo Base Hospital", "cat": "Regional Major Hospital (100+ beds)", "beds": 198, "lon": 148.61, "lat": -32.25, "km": 0.7}, {"name": "Narrabri District Hospital", "cat": "Remote Major Hospital (15+ beds)", "beds": 30, "lon": 149.7833, "lat": -30.3333, "km": 0.8}, {"name": "Forbes District Hospital", "cat": "Remote Major Hospital (15+ beds)", "beds": 25, "lon": 148.0, "lat": -33.3833, "km": 0.9}, {"name": "Parkes District Hospital", "cat": "Remote Major Hospital (15+ beds)", "beds": 35, "lon": 148.1833, "lat": -33.1333, "km": 1.0}, {"name": "Moree District Hospital", "cat": "Remote Major Hospital (15+ beds)", "beds": 40, "lon": 149.8333, "lat": -29.4667, "km": 1.5}], "dests": [{"name": "Parkes Intermodal", "ftype": "Major Intermodal", "lon": 148.175, "lat": -33.138, "km": 0.2}, {"name": "Moree Airport", "ftype": "Regional Airport", "lon": 149.845, "lat": -29.4989, "km": 0.8}]}, "0007525": {"centres": [{"name": "Dubbo", "kind": "sua", "suaId": 11, "type": "Significant Urban Area", "pop": 38783, "big": false, "lon": 148.59817, "lat": -32.2433, "km": 0.0}], "hospitals": [{"name": "Dubbo Base Hospital", "cat": "Regional Major Hospital (100+ beds)", "beds": 198, "lon": 148.61, "lat": -32.25, "km": 1.3}]}, "0000027": {"centres": [{"name": "Dubbo", "kind": "sua", "suaId": 11, "type": "Significant Urban Area", "pop": 38783, "big": false, "lon": 148.63224, "lat": -32.23777, "km": 0.0}, {"name": "Singleton", "kind": "sua", "suaId": 28, "type": "Significant Urban Area", "pop": 14229, "big": false, "lon": 151.22861, "lat": -32.64259, "km": 0.0}], "hospitals": [{"name": "Dubbo Base Hospital", "cat": "Regional Major Hospital (100+ beds)", "beds": 198, "lon": 148.61, "lat": -32.25, "km": 0.7}]}, "0000021": {"centres": [{"name": "Deniliquin", "kind": "town", "pop": 6431, "type": "Town Centre", "lon": 144.95493, "lat": -35.54307, "km": 0.4}, {"name": "Hay", "kind": "town", "pop": 2208, "type": "Town Centre", "lon": 144.83828, "lat": -34.51344, "km": 0.7}, {"name": "Echuca - Moama (Moama Part)", "kind": "town", "pop": 6654, "type": "Town Centre", "lon": 144.72981, "lat": -36.09067, "km": 1.8}]}, "0000692": {"centres": [{"name": "Forster - Tuncurry", "kind": "sua", "suaId": 12, "type": "Significant Urban Area", "pop": 20554, "big": false, "lon": 152.49858, "lat": -32.17325, "km": 0.0}]}, "0000111": {"centres": [{"name": "Forster - Tuncurry", "kind": "sua", "suaId": 12, "type": "Significant Urban Area", "pop": 20554, "big": false, "lon": 152.51889, "lat": -32.20204, "km": 0.0}, {"name": "Taree", "kind": "town", "type": "Major Town", "pop": 18110, "lon": 152.45762, "lat": -31.89313, "km": 12.9, "endpoint": true}]}, "0000676": {"centres": [{"name": "Goulburn", "kind": "sua", "suaId": 13, "type": "Significant Urban Area", "pop": 23963, "big": false, "lon": 149.71557, "lat": -34.7579, "km": 0.0}], "hospitals": [{"name": "Goulburn Base Hospital", "cat": "Regional Major Hospital (100+ beds)", "beds": 120, "lon": 149.7167, "lat": -34.75, "km": 0.7}]}, "0000079": {"centres": [{"name": "Goulburn", "kind": "sua", "suaId": 13, "type": "Significant Urban Area", "pop": 23963, "big": false, "lon": 149.71488, "lat": -34.76342, "km": 0.0}], "hospitals": [{"name": "Goulburn Base Hospital", "cat": "Regional Major Hospital (100+ beds)", "beds": 120, "lon": 149.7167, "lat": -34.75, "km": 1.0}]}, "1720302": {"centres": [{"name": "Goulburn", "kind": "sua", "suaId": 13, "type": "Significant Urban Area", "pop": 23963, "big": false, "lon": 149.72323, "lat": -34.75258, "km": 0.0}], "hospitals": [{"name": "Goulburn Base Hospital", "cat": "Regional Major Hospital (100+ beds)", "beds": 120, "lon": 149.7167, "lat": -34.75, "km": 0.7}]}, "0000256": {"centres": [{"name": "Goulburn", "kind": "sua", "suaId": 13, "type": "Significant Urban Area", "pop": 23963, "big": false, "lon": 149.73336, "lat": -34.74566, "km": 0.0}, {"name": "Oberon", "kind": "town", "pop": 2540, "type": "Town Centre", "lon": 149.86121, "lat": -33.70311, "km": 1.6}], "hospitals": [{"name": "Goulburn Base Hospital", "cat": "Regional Major Hospital (100+ beds)", "beds": 120, "lon": 149.7167, "lat": -34.75, "km": 1.6}]}, "0000080": {"centres": [{"name": "Griffith", "kind": "sua", "suaId": 15, "type": "Significant Urban Area", "pop": 20799, "big": false, "lon": 146.03744, "lat": -34.28695, "km": 0.0}, {"name": "Leeton", "kind": "town", "pop": 7437, "type": "Major Town", "lon": 146.40554, "lat": -34.55139, "km": 0.0}, {"name": "Narrandera", "kind": "town", "pop": 3783, "type": "Town Centre", "lon": 146.55303, "lat": -34.74359, "km": 0.5}], "hospitals": [{"name": "Griffith Base Hospital", "cat": "Remote Major Hospital (15+ beds)", "beds": 60, "lon": 146.05, "lat": -34.2889, "km": 0.1}]}, "0000321": {"centres": [{"name": "Griffith", "kind": "sua", "suaId": 15, "type": "Significant Urban Area", "pop": 20799, "big": false, "lon": 146.05067, "lat": -34.2884, "km": 0.0}], "hospitals": [{"name": "Griffith Base Hospital", "cat": "Remote Major Hospital (15+ beds)", "beds": 60, "lon": 146.05, "lat": -34.2889, "km": 0.1}], "dests": [{"name": "Griffith Airport", "ftype": "Regional Airport", "lon": 146.0667, "lat": -34.2492, "km": 2.9}]}, "0000084": {"centres": [{"name": "Griffith", "kind": "town", "pop": 20799, "type": "Regional City", "lon": 146.05579, "lat": -34.27553, "km": 3.9}, {"name": "Temora", "kind": "town", "pop": 4016, "type": "Town Centre", "lon": 147.52575, "lat": -34.44195, "km": 0.6}]}, "0002123": {"centres": [{"name": "Newcastle - Maitland", "kind": "sua", "suaId": 24, "type": "Significant Urban Area", "pop": 348539, "big": true, "lon": 151.47589, "lat": -32.79691, "km": 0.0}, {"name": "Kurri Kurri", "kind": "town", "pop": 20015, "type": "Regional City", "lon": 151.47184, "lat": -32.81008, "km": 1.1}]}, "0006011": {"centres": [{"name": "Newcastle - Maitland", "kind": "sua", "suaId": 24, "type": "Significant Urban Area", "pop": 348539, "big": true, "lon": 151.49733, "lat": -32.80632, "km": 0.0}, {"name": "Kurri Kurri", "kind": "town", "pop": 20015, "type": "Regional City", "lon": 151.47184, "lat": -32.81008, "km": 1.3}, {"name": "Singleton", "kind": "town", "type": "Major Town", "pop": 14229, "lon": 151.16331, "lat": -32.55274, "km": 18.7, "endpoint": true}, {"name": "North Rothbury", "kind": "town", "pop": 2283, "type": "Town Centre", "lon": 151.35793, "lat": -32.67761, "km": 1.0}, {"name": "Branxton", "kind": "town", "pop": 2878, "type": "Town Centre", "lon": 151.35578, "lat": -32.65652, "km": 1.1}, {"name": "Greta", "kind": "town", "pop": 3230, "type": "Town Centre", "lon": 151.39244, "lat": -32.67581, "km": 1.5}]}, "0000544": {"centres": [{"name": "Lismore", "kind": "sua", "suaId": 17, "type": "Significant Urban Area", "pop": 27916, "big": false, "lon": 153.26949, "lat": -28.8093, "km": 0.0}], "hospitals": [{"name": "Lismore Base Hospital", "cat": "Regional Major Hospital (100+ beds)", "beds": 170, "lon": 153.2783, "lat": -28.8117, "km": 0.7}], "dests": [{"name": "Lismore Airport", "ftype": "Regional Airport", "lon": 153.26, "lat": -28.8303, "km": 2.5}]}, "0000142": {"centres": [{"name": "Lismore", "kind": "sua", "suaId": 17, "type": "Significant Urban Area", "pop": 27916, "big": false, "lon": 153.27716, "lat": -28.80665, "km": 0.0}, {"name": "Murwillumbah", "kind": "town", "pop": 9812, "type": "Major Town", "lon": 153.40473, "lat": -28.33268, "km": 0.4}], "hospitals": [{"name": "Lismore Base Hospital", "cat": "Regional Major Hospital (100+ beds)", "beds": 170, "lon": 153.2783, "lat": -28.8117, "km": 0.4}]}, "0000016": {"centres": [{"name": "Lismore", "kind": "sua", "suaId": 17, "type": "Significant Urban Area", "pop": 27916, "big": false, "lon": 153.28152, "lat": -28.81458, "km": 0.0}, {"name": "Ballina", "kind": "sua", "suaId": 2, "type": "Significant Urban Area", "pop": 18532, "big": false, "lon": 153.52043, "lat": -28.86173, "km": 0.0}, {"name": "Casino", "kind": "town", "pop": 9968, "type": "Major Town", "lon": 153.04757, "lat": -28.8631, "km": 0.2}, {"name": "Tenterfield", "kind": "town", "pop": 2826, "type": "Town Centre", "lon": 152.01888, "lat": -29.05015, "km": 0.4}, {"name": "Wollongbar", "kind": "town", "pop": 2988, "type": "Town Centre", "lon": 153.42029, "lat": -28.82326, "km": 0.7}, {"name": "Alstonville", "kind": "town", "pop": 5182, "type": "Town Centre", "lon": 153.44157, "lat": -28.83834, "km": 1.1}, {"name": "Cumbalum", "kind": "town", "pop": 2011, "type": "Town Centre", "lon": 153.53529, "lat": -28.82221, "km": 4.5}], "hospitals": [{"name": "Lismore Base Hospital", "cat": "Regional Major Hospital (100+ beds)", "beds": 170, "lon": 153.2783, "lat": -28.8117, "km": 0.2}], "dests": [{"name": "Lismore Airport", "ftype": "Regional Airport", "lon": 153.26, "lat": -28.8303, "km": 1.1}]}, "0000306": {"centres": [{"name": "Lismore", "kind": "sua", "suaId": 17, "type": "Significant Urban Area", "pop": 27916, "big": false, "lon": 153.27227, "lat": -28.79163, "km": 0.0}], "hospitals": [{"name": "Lismore Base Hospital", "cat": "Regional Major Hospital (100+ beds)", "beds": 170, "lon": 153.2783, "lat": -28.8117, "km": 1.4}]}, "0000065": {"centres": [{"name": "Lismore", "kind": "sua", "suaId": 17, "type": "Significant Urban Area", "pop": 27916, "big": false, "lon": 153.28149, "lat": -28.8087, "km": 0.0}, {"name": "Byron Bay", "kind": "town", "type": "Major Town", "pop": 10538, "lon": 153.60243, "lat": -28.65219, "km": 5.3, "endpoint": true}, {"name": "Bangalow", "kind": "town", "pop": 2260, "type": "Town Centre", "lon": 153.52402, "lat": -28.68577, "km": 0.2}], "hospitals": [{"name": "Lismore Base Hospital", "cat": "Regional Major Hospital (100+ beds)", "beds": 170, "lon": 153.2783, "lat": -28.8117, "km": 0.1}], "dests": [{"name": "Lismore Airport", "ftype": "Regional Airport", "lon": 153.26, "lat": -28.8303, "km": 2.5}]}, "0007742": {"centres": [{"name": "Lismore", "kind": "sua", "suaId": 17, "type": "Significant Urban Area", "pop": 27916, "big": false, "lon": 153.28857, "lat": -28.84867, "km": 0.0}], "hospitals": [{"name": "Lismore Base Hospital", "cat": "Regional Major Hospital (100+ beds)", "beds": 170, "lon": 153.2783, "lat": -28.8117, "km": 0.5}], "dests": [{"name": "Lismore Airport", "ftype": "Regional Airport", "lon": 153.26, "lat": -28.8303, "km": 2.7}]}, "0000022": {"centres": [{"name": "Broken Hill", "kind": "sua", "suaId": 6, "type": "Significant Urban Area", "pop": 17456, "big": false, "lon": 141.45904, "lat": -31.98129, "km": 0.0}, {"name": "Mildura - Buronga (Buronga Part)", "kind": "town", "pop": 2400, "type": "Town Centre", "lon": 142.1966, "lat": -34.17575, "km": 1.5}], "hospitals": [{"name": "Broken Hill Hospital", "cat": "Remote Major Hospital (15+ beds)", "beds": 80, "lon": 141.45, "lat": -31.95, "km": 1.2}], "dests": [{"name": "Broken Hill Airport", "ftype": "Regional Airport", "lon": 141.4722, "lat": -31.9983, "km": 2.3}]}, "0000014": {"centres": [{"name": "Wagga Wagga", "kind": "sua", "suaId": 34, "type": "Significant Urban Area", "pop": 49686, "big": false, "lon": 147.34543, "lat": -35.11539, "km": 0.0}, {"name": "Mildura - Buronga (Buronga Part)", "kind": "town", "pop": 2400, "type": "Town Centre", "lon": 142.1966, "lat": -34.17575, "km": 0.6}, {"name": "Hay", "kind": "town", "pop": 2208, "type": "Town Centre", "lon": 144.83828, "lat": -34.51344, "km": 0.8}, {"name": "Forest Hill (NSW)", "kind": "town", "pop": 2835, "type": "Town Centre", "lon": 147.46141, "lat": -35.15615, "km": 1.3}, {"name": "Narrandera", "kind": "town", "pop": 3783, "type": "Town Centre", "lon": 146.55303, "lat": -34.74359, "km": 2.3}], "hospitals": [{"name": "Wagga Wagga Base Hospital", "cat": "Regional Major Hospital (100+ beds)", "beds": 200, "lon": 147.3614, "lat": -35.1189, "km": 0.5}], "dests": [{"name": "Wagga Wagga Airport", "ftype": "Regional Airport", "lon": 147.4664, "lat": -35.1653, "km": 1.7}]}, "0000431": {"centres": [{"name": "Mildura - Buronga (Buronga Part)", "kind": "town", "pop": 2400, "type": "Town Centre", "lon": 142.1966, "lat": -34.17575, "km": 3.2}]}, "0006003": {"centres": [{"name": "Sydney", "kind": "sua", "suaId": 30, "type": "Significant Urban Area", "pop": 4698656, "big": true, "lon": 151.14851, "lat": -33.63522, "km": 0.0}, {"name": "Newcastle - Maitland", "kind": "sua", "suaId": 24, "type": "Significant Urban Area", "pop": 348539, "big": true, "lon": 151.60664, "lat": -32.88293, "km": 0.0}, {"name": "Central Coast", "kind": "sua", "suaId": 9, "type": "Significant Urban Area", "pop": 325255, "big": true, "lon": 151.36997, "lat": -33.34516, "km": 0.0}, {"name": "Morisset - Cooranbong", "kind": "sua", "suaId": 20, "type": "Significant Urban Area", "pop": 22150, "big": false, "lon": 151.46719, "lat": -33.19104, "km": 0.0}, {"name": "Maitland (NSW)", "kind": "town", "type": "Regional City", "pop": 89597, "lon": 151.58718, "lat": -32.75009, "km": 8.4, "endpoint": true}], "hospitals": [{"name": "Hornsby Ku-ring-gai Hospital", "cat": "Urban Major Hospital (400+ beds)", "beds": 400, "lon": 151.0994, "lat": -33.7025, "km": 1.8}]}, "0000454": {"centres": [{"name": "Central Coast", "kind": "sua", "suaId": 9, "type": "Significant Urban Area", "pop": 325255, "big": true, "lon": 151.52222, "lat": -33.19884, "km": 0.0}, {"name": "Morisset - Cooranbong", "kind": "sua", "suaId": 20, "type": "Significant Urban Area", "pop": 22150, "big": false, "lon": 151.47842, "lat": -33.164, "km": 0.0}]}, "0000092": {"centres": [{"name": "Nowra - Bomaderry", "kind": "sua", "suaId": 25, "type": "Significant Urban Area", "pop": 33583, "big": false, "lon": 150.54696, "lat": -34.93628, "km": 0.0}], "hospitals": [{"name": "Shoalhaven District Memorial Hospital", "cat": "Regional Major Hospital (100+ beds)", "beds": 160, "lon": 150.605, "lat": -34.875, "km": 1.4}]}, "0000293": {"centres": [{"name": "Nowra - Bomaderry", "kind": "sua", "suaId": 25, "type": "Significant Urban Area", "pop": 33583, "big": false, "lon": 150.60812, "lat": -34.85618, "km": 0.0}, {"name": "Shoalhaven Heads", "kind": "town", "pop": 3264, "type": "Town Centre", "lon": 150.74091, "lat": -34.85026, "km": 1.1}], "hospitals": [{"name": "Shoalhaven District Memorial Hospital", "cat": "Regional Major Hospital (100+ beds)", "beds": 160, "lon": 150.605, "lat": -34.875, "km": 1.7}]}, "0007632": {"centres": [{"name": "Nowra - Bomaderry", "kind": "sua", "suaId": 25, "type": "Significant Urban Area", "pop": 33583, "big": false, "lon": 150.62789, "lat": -34.89064, "km": 0.0}, {"name": "Culburra Beach - Orient Point", "kind": "town", "pop": 3580, "type": "Town Centre", "lon": 150.75952, "lat": -34.91893, "km": 1.3}], "hospitals": [{"name": "Shoalhaven District Memorial Hospital", "cat": "Regional Major Hospital (100+ beds)", "beds": 160, "lon": 150.605, "lat": -34.875, "km": 1.4}]}, "0000061": {"centres": [{"name": "Orange", "kind": "sua", "suaId": 26, "type": "Significant Urban Area", "pop": 40127, "big": false, "lon": 149.08543, "lat": -33.27414, "km": 0.0}, {"name": "Parkes", "kind": "town", "pop": 9832, "type": "Major Town", "lon": 148.17639, "lat": -33.14102, "km": 0.1}, {"name": "Condobolin", "kind": "town", "pop": 2579, "type": "Town Centre", "lon": 147.1474, "lat": -33.08551, "km": 0.5}], "hospitals": [{"name": "Parkes District Hospital", "cat": "Remote Major Hospital (15+ beds)", "beds": 35, "lon": 148.1833, "lat": -33.1333, "km": 1.0}, {"name": "Orange Health Service", "cat": "Regional Major Hospital (100+ beds)", "beds": 200, "lon": 149.1, "lat": -33.2883, "km": 2.1}], "dests": [{"name": "Parkes Intermodal", "ftype": "Major Intermodal", "lon": 148.175, "lat": -33.138, "km": 0.2}]}, "0000237": {"centres": [{"name": "Orange", "kind": "sua", "suaId": 26, "type": "Significant Urban Area", "pop": 40127, "big": false, "lon": 149.07032, "lat": -33.28226, "km": 0.0}, {"name": "Grenfell", "kind": "town", "pop": 2022, "type": "Town Centre", "lon": 148.15538, "lat": -33.89777, "km": 0.6}], "hospitals": [{"name": "Orange Health Service", "cat": "Regional Major Hospital (100+ beds)", "beds": 200, "lon": 149.1, "lat": -33.2883, "km": 1.5}]}, "0000705": {"centres": [{"name": "Orange", "kind": "sua", "suaId": 26, "type": "Significant Urban Area", "pop": 40127, "big": false, "lon": 149.09392, "lat": -33.2827, "km": 0.0}], "hospitals": [{"name": "Orange Health Service", "cat": "Regional Major Hospital (100+ beds)", "beds": 200, "lon": 149.1, "lat": -33.2883, "km": 0.6}]}, "0000573": {"centres": [{"name": "Orange", "kind": "sua", "suaId": 26, "type": "Significant Urban Area", "pop": 40127, "big": false, "lon": 149.0868, "lat": -33.27471, "km": 0.0}, {"name": "Wellington", "kind": "town", "pop": 4581, "type": "Town Centre", "lon": 148.94924, "lat": -32.5564, "km": 4.3}], "hospitals": [{"name": "Orange Health Service", "cat": "Regional Major Hospital (100+ beds)", "beds": 200, "lon": 149.1, "lat": -33.2883, "km": 1.9}]}, "0000245": {"centres": [{"name": "Orange", "kind": "sua", "suaId": 26, "type": "Significant Urban Area", "pop": 40127, "big": false, "lon": 149.10319, "lat": -33.28629, "km": 0.0}, {"name": "Blayney", "kind": "town", "pop": 2997, "type": "Town Centre", "lon": 149.25049, "lat": -33.52958, "km": 0.1}], "hospitals": [{"name": "Orange Health Service", "cat": "Regional Major Hospital (100+ beds)", "beds": 200, "lon": 149.1, "lat": -33.2883, "km": 0.4}], "dests": [{"name": "Orange Airport", "ftype": "Regional Airport", "lon": 149.1328, "lat": -33.3817, "km": 1.1}]}, "0000011": {"centres": [{"name": "Port Macquarie", "kind": "sua", "suaId": 27, "type": "Significant Urban Area", "pop": 47793, "big": false, "lon": 152.85915, "lat": -31.45886, "km": 0.0}, {"name": "Tamworth", "kind": "sua", "suaId": 31, "type": "Significant Urban Area", "pop": 35415, "big": false, "lon": 150.89704, "lat": -31.09882, "km": 0.0}, {"name": "Wauchope", "kind": "town", "pop": 7982, "type": "Major Town", "lon": 152.72754, "lat": -31.46526, "km": 0.5}, {"name": "Gunnedah", "kind": "town", "pop": 8338, "type": "Major Town", "lon": 150.24043, "lat": -30.96581, "km": 1.0}, {"name": "Thrumster", "kind": "town", "pop": 2115, "type": "Town Centre", "lon": 152.83185, "lat": -31.46591, "km": 0.6}, {"name": "Gilgandra", "kind": "town", "pop": 2417, "type": "Town Centre", "lon": 148.65151, "lat": -31.70441, "km": 0.7}, {"name": "Calala", "kind": "town", "pop": 3930, "type": "Town Centre", "lon": 150.94964, "lat": -31.133, "km": 4.2}, {"name": "Coonabarabran", "kind": "town", "pop": 2387, "type": "Town Centre", "lon": 149.27654, "lat": -31.27294, "km": 4.6}], "hospitals": [{"name": "Tamworth Hospital", "cat": "Regional Major Hospital (100+ beds)", "beds": 220, "lon": 150.9208, "lat": -31.0928, "km": 0.2}, {"name": "Port Macquarie Base Hospital", "cat": "Regional Major Hospital (100+ beds)", "beds": 180, "lon": 152.8917, "lat": -31.4417, "km": 0.3}], "dests": [{"name": "Tamworth Airport", "ftype": "Regional Airport", "lon": 150.8469, "lat": -31.0839, "km": 0.7}, {"name": "Port Macquarie Airport", "ftype": "Regional Airport", "lon": 152.8639, "lat": -31.4356, "km": 1.8}]}, "0000600": {"centres": [{"name": "Port Macquarie", "kind": "sua", "suaId": 27, "type": "Significant Urban Area", "pop": 47793, "big": false, "lon": 152.90926, "lat": -31.46815, "km": 0.0}, {"name": "Camden Haven", "kind": "sua", "suaId": 8, "type": "Significant Urban Area", "pop": 8037, "big": false, "lon": 152.72708, "lat": -31.63462, "km": 0.0}, {"name": "Bonny Hills", "kind": "town", "pop": 2825, "type": "Town Centre", "lon": 152.83758, "lat": -31.5883, "km": 0.3}, {"name": "Lake Cathie", "kind": "town", "pop": 4049, "type": "Town Centre", "lon": 152.84401, "lat": -31.55694, "km": 0.6}], "hospitals": [{"name": "Port Macquarie Base Hospital", "cat": "Regional Major Hospital (100+ beds)", "beds": 180, "lon": 152.8917, "lat": -31.4417, "km": 0.7}], "dests": [{"name": "Port Macquarie Airport", "ftype": "Regional Airport", "lon": 152.8639, "lat": -31.4356, "km": 1.7}]}, "0007746": {"centres": [{"name": "Port Macquarie", "kind": "sua", "suaId": 27, "type": "Significant Urban Area", "pop": 47793, "big": false, "lon": 152.90849, "lat": -31.43425, "km": 0.0}], "hospitals": [{"name": "Port Macquarie Base Hospital", "cat": "Regional Major Hospital (100+ beds)", "beds": 180, "lon": 152.8917, "lat": -31.4417, "km": 1.1}]}, "0000130": {"centres": [{"name": "Tamworth", "kind": "sua", "suaId": 31, "type": "Significant Urban Area", "pop": 35415, "big": false, "lon": 150.89953, "lat": -31.10769, "km": 0.0}, {"name": "Quirindi", "kind": "town", "pop": 2602, "type": "Town Centre", "lon": 150.68127, "lat": -31.50823, "km": 0.1}], "hospitals": [{"name": "Tamworth Hospital", "cat": "Regional Major Hospital (100+ beds)", "beds": 220, "lon": 150.9208, "lat": -31.0928, "km": 1.7}]}, "0007744": {"centres": [{"name": "Tamworth", "kind": "sua", "suaId": 31, "type": "Significant Urban Area", "pop": 35415, "big": false, "lon": 150.89708, "lat": -31.09857, "km": 0.0}], "hospitals": [{"name": "Tamworth Hospital", "cat": "Regional Major Hospital (100+ beds)", "beds": 220, "lon": 150.9208, "lat": -31.0928, "km": 1.3}]}, "0000063": {"centres": [{"name": "Tamworth", "kind": "sua", "suaId": 31, "type": "Significant Urban Area", "pop": 35415, "big": false, "lon": 150.9203, "lat": -31.08037, "km": 0.0}, {"name": "Manilla", "kind": "town", "pop": 2014, "type": "Town Centre", "lon": 150.72355, "lat": -30.74894, "km": 0.5}], "hospitals": [{"name": "Tamworth Hospital", "cat": "Regional Major Hospital (100+ beds)", "beds": 220, "lon": 150.9208, "lat": -31.0928, "km": 0.8}]}, "0007707": {"centres": [{"name": "Tamworth", "kind": "sua", "suaId": 31, "type": "Significant Urban Area", "pop": 35415, "big": false, "lon": 150.92285, "lat": -31.09202, "km": 0.0}, {"name": "Calala", "kind": "town", "pop": 3930, "type": "Town Centre", "lon": 150.94964, "lat": -31.133, "km": 3.5}], "hospitals": [{"name": "Tamworth Hospital", "cat": "Regional Major Hospital (100+ beds)", "beds": 220, "lon": 150.9208, "lat": -31.0928, "km": 0.2}]}, "0000078": {"centres": [{"name": "Wagga Wagga", "kind": "sua", "suaId": 34, "type": "Significant Urban Area", "pop": 49686, "big": false, "lon": 147.31036, "lat": -35.14486, "km": 0.0}, {"name": "Albury - Wodonga (Albury Part)", "kind": "town", "type": "Regional City", "pop": 53677, "lon": 146.94883, "lat": -36.05031, "km": 15.1, "endpoint": true}, {"name": "Cowra", "kind": "town", "pop": 8254, "type": "Major Town", "lon": 148.67271, "lat": -33.83857, "km": 0.6}, {"name": "Young", "kind": "town", "pop": 7712, "type": "Major Town", "lon": 148.2973, "lat": -34.31971, "km": 0.7}, {"name": "Cootamundra", "kind": "town", "pop": 5732, "type": "Town Centre", "lon": 148.02624, "lat": -34.63794, "km": 0.5}, {"name": "Estella", "kind": "town", "pop": 6782, "type": "Town Centre", "lon": 147.35383, "lat": -35.06779, "km": 1.0}, {"name": "Junee", "kind": "town", "pop": 4882, "type": "Town Centre", "lon": 147.57161, "lat": -34.86104, "km": 1.4}], "hospitals": [{"name": "Young District Hospital", "cat": "Remote Major Hospital (15+ beds)", "beds": 25, "lon": 148.3, "lat": -34.3167, "km": 0.3}, {"name": "Cowra District Hospital", "cat": "Remote Major Hospital (15+ beds)", "beds": 30, "lon": 148.6833, "lat": -33.8333, "km": 0.4}, {"name": "Wagga Wagga Base Hospital", "cat": "Regional Major Hospital (100+ beds)", "beds": 200, "lon": 147.3614, "lat": -35.1189, "km": 1.5}]}, "0000211": {"centres": [{"name": "Wagga Wagga", "kind": "sua", "suaId": 34, "type": "Significant Urban Area", "pop": 49686, "big": false, "lon": 147.3543, "lat": -35.12647, "km": 0.0}], "hospitals": [{"name": "Wagga Wagga Base Hospital", "cat": "Regional Major Hospital (100+ beds)", "beds": 200, "lon": 147.3614, "lat": -35.1189, "km": 0.5}]}, "0000695": {"centres": [{"name": "Ballina", "kind": "sua", "suaId": 2, "type": "Significant Urban Area", "pop": 18532, "big": false, "lon": 153.53998, "lat": -28.8631, "km": 0.0}, {"name": "Cumbalum", "kind": "town", "pop": 2011, "type": "Town Centre", "lon": 153.53529, "lat": -28.82221, "km": 0.7}], "dests": [{"name": "Ballina Byron Gateway Airport", "ftype": "Regional Airport", "lon": 153.5603, "lat": -28.8339, "km": 1.9}]}, "0000545": {"centres": [{"name": "Ballina", "kind": "sua", "suaId": 2, "type": "Significant Urban Area", "pop": 18532, "big": false, "lon": 153.56382, "lat": -28.85821, "km": 0.0}, {"name": "Byron Bay", "kind": "sua", "suaId": 7, "type": "Significant Urban Area", "pop": 10538, "big": false, "lon": 153.61471, "lat": -28.65089, "km": 0.0}, {"name": "Lennox Head", "kind": "town", "pop": 7483, "type": "Major Town", "lon": 153.58973, "lat": -28.80298, "km": 0.3}, {"name": "Cumbalum", "kind": "town", "pop": 2011, "type": "Town Centre", "lon": 153.53529, "lat": -28.82221, "km": 4.5}], "dests": [{"name": "Ballina Byron Gateway Airport", "ftype": "Regional Airport", "lon": 153.5603, "lat": -28.8339, "km": 1.8}]}, "0000560": {"centres": [{"name": "Batemans Bay", "kind": "sua", "suaId": 3, "type": "Significant Urban Area", "pop": 12263, "big": false, "lon": 150.17467, "lat": -35.70815, "km": 0.0}, {"name": "Long Beach - Maloneys Beach (L)", "kind": "town", "pop": 2231, "type": "Town Centre", "lon": 150.22647, "lat": -35.69206, "km": 4.3}]}, "0007630": {"centres": [{"name": "Batemans Bay", "kind": "sua", "suaId": 3, "type": "Significant Urban Area", "pop": 12263, "big": false, "lon": 150.21095, "lat": -35.76457, "km": 0.0}, {"name": "Malua Bay", "kind": "town", "pop": 2372, "type": "Town Centre", "lon": 150.22659, "lat": -35.78667, "km": 0.1}, {"name": "Broulee - Mossy Point", "kind": "town", "pop": 2502, "type": "Town Centre", "lon": 150.17514, "lat": -35.84258, "km": 0.8}, {"name": "Moruya", "kind": "town", "pop": 2762, "type": "Town Centre", "lon": 150.07862, "lat": -35.91391, "km": 1.0}]}, "0007629": {"centres": [{"name": "Batemans Bay", "kind": "sua", "suaId": 3, "type": "Significant Urban Area", "pop": 12263, "big": false, "lon": 150.22129, "lat": -35.6896, "km": 0.0}, {"name": "Long Beach - Maloneys Beach (L)", "kind": "town", "pop": 2231, "type": "Town Centre", "lon": 150.22647, "lat": -35.69206, "km": 0.3}]}, "0000008": {"centres": [{"name": "Broken Hill", "kind": "sua", "suaId": 6, "type": "Significant Urban Area", "pop": 17456, "big": false, "lon": 141.45212, "lat": -31.95285, "km": 0.0}, {"name": "Cobar", "kind": "town", "pop": 3369, "type": "Town Centre", "lon": 145.83615, "lat": -31.49926, "km": 0.3}], "hospitals": [{"name": "Broken Hill Hospital", "cat": "Remote Major Hospital (15+ beds)", "beds": 80, "lon": 141.45, "lat": -31.95, "km": 0.4}, {"name": "Cobar Health Service", "cat": "Remote Major Hospital (15+ beds)", "beds": 25, "lon": 145.8333, "lat": -31.4833, "km": 1.7}]}, "0000081": {"centres": [{"name": "Broken Hill", "kind": "sua", "suaId": 6, "type": "Significant Urban Area", "pop": 17456, "big": false, "lon": 141.44258, "lat": -31.95855, "km": 0.0}], "hospitals": [{"name": "Broken Hill Hospital", "cat": "Remote Major Hospital (15+ beds)", "beds": 80, "lon": 141.45, "lat": -31.95, "km": 1.2}]}, "0007507": {"centres": [{"name": "Broken Hill", "kind": "sua", "suaId": 6, "type": "Significant Urban Area", "pop": 17456, "big": false, "lon": 141.44222, "lat": -31.9982, "km": 0.0}], "hospitals": [{"name": "Broken Hill Hospital", "cat": "Remote Major Hospital (15+ beds)", "beds": 80, "lon": 141.45, "lat": -31.95, "km": 2.4}], "dests": [{"name": "Broken Hill Airport", "ftype": "Regional Airport", "lon": 141.4722, "lat": -31.9983, "km": 2.8}]}, "0000066": {"centres": [{"name": "Broken Hill", "kind": "sua", "suaId": 6, "type": "Significant Urban Area", "pop": 17456, "big": false, "lon": 141.52787, "lat": -31.98492, "km": 0.0}], "hospitals": [{"name": "Broken Hill Hospital", "cat": "Remote Major Hospital (15+ beds)", "beds": 80, "lon": 141.45, "lat": -31.95, "km": 2.3}]}, "0000012": {"centres": [{"name": "Grafton", "kind": "sua", "suaId": 14, "type": "Significant Urban Area", "pop": 17155, "big": false, "lon": 152.93962, "lat": -29.70747, "km": 0.0}, {"name": "Inverell", "kind": "town", "pop": 9654, "type": "Major Town", "lon": 151.11403, "lat": -29.78144, "km": 0.3}, {"name": "Moree", "kind": "town", "pop": 7070, "type": "Major Town", "lon": 149.84107, "lat": -29.47786, "km": 1.0}, {"name": "Glen Innes", "kind": "town", "pop": 5184, "type": "Town Centre", "lon": 151.73072, "lat": -29.73715, "km": 0.5}], "hospitals": [{"name": "Inverell District Hospital", "cat": "Remote Major Hospital (15+ beds)", "beds": 40, "lon": 151.1167, "lat": -29.7833, "km": 0.5}, {"name": "Moree District Hospital", "cat": "Remote Major Hospital (15+ beds)", "beds": 40, "lon": 149.8333, "lat": -29.4667, "km": 0.7}, {"name": "Glen Innes Hospital", "cat": "Remote Major Hospital (15+ beds)", "beds": 20, "lon": 151.6833, "lat": -29.7333, "km": 1.2}, {"name": "Grafton Base Hospital", "cat": "Regional Major Hospital (100+ beds)", "beds": 100, "lon": 152.9333, "lat": -29.6833, "km": 2.2}], "dests": [{"name": "Moree Airport", "ftype": "Regional Airport", "lon": 149.845, "lat": -29.4989, "km": 2.9}]}, "0000074": {"centres": [{"name": "Grafton", "kind": "sua", "suaId": 14, "type": "Significant Urban Area", "pop": 17155, "big": false, "lon": 152.93891, "lat": -29.72496, "km": 0.0}], "hospitals": [{"name": "Grafton Base Hospital", "cat": "Regional Major Hospital (100+ beds)", "beds": 100, "lon": 152.9333, "lat": -29.6833, "km": 2.8}]}, "0860083": {"centres": [{"name": "Grafton", "kind": "sua", "suaId": 14, "type": "Significant Urban Area", "pop": 17155, "big": false, "lon": 152.93946, "lat": -29.70734, "km": 0.0}], "hospitals": [{"name": "Grafton Base Hospital", "cat": "Regional Major Hospital (100+ beds)", "beds": 100, "lon": 152.9333, "lat": -29.6833, "km": 0.6}]}, "0000083": {"centres": [{"name": "Grafton", "kind": "sua", "suaId": 14, "type": "Significant Urban Area", "pop": 17155, "big": false, "lon": 152.94017, "lat": -29.69294, "km": 0.0}, {"name": "Casino", "kind": "town", "pop": 9968, "type": "Major Town", "lon": 153.04757, "lat": -28.8631, "km": 0.5}, {"name": "Kyogle", "kind": "town", "pop": 2804, "type": "Town Centre", "lon": 152.99707, "lat": -28.62228, "km": 0.7}], "hospitals": [{"name": "Grafton Base Hospital", "cat": "Regional Major Hospital (100+ beds)", "beds": 100, "lon": 152.9333, "lat": -29.6833, "km": 0.5}]}, "0000152": {"centres": [{"name": "Grafton", "kind": "sua", "suaId": 14, "type": "Significant Urban Area", "pop": 17155, "big": false, "lon": 152.94398, "lat": -29.672, "km": 0.0}, {"name": "Yamba", "kind": "town", "pop": 6342, "type": "Town Centre", "lon": 153.33875, "lat": -29.43318, "km": 0.5}, {"name": "Maclean", "kind": "town", "pop": 2711, "type": "Town Centre", "lon": 153.20511, "lat": -29.45707, "km": 0.8}], "hospitals": [{"name": "Grafton Base Hospital", "cat": "Regional Major Hospital (100+ beds)", "beds": 100, "lon": 152.9333, "lat": -29.6833, "km": 0.5}]}, "0000075": {"centres": [{"name": "Kempsey", "kind": "sua", "suaId": 16, "type": "Significant Urban Area", "pop": 11073, "big": false, "lon": 152.83188, "lat": -31.07917, "km": 0.0}]}, "2350010": {"centres": [{"name": "Kempsey", "kind": "sua", "suaId": 16, "type": "Significant Urban Area", "pop": 11073, "big": false, "lon": 152.82618, "lat": -31.12727, "km": 0.0}]}, "0007737": {"centres": [{"name": "Kempsey", "kind": "sua", "suaId": 16, "type": "Significant Urban Area", "pop": 11073, "big": false, "lon": 152.83772, "lat": -31.09779, "km": 0.0}]}, "0000198": {"centres": [{"name": "Kempsey", "kind": "sua", "suaId": 16, "type": "Significant Urban Area", "pop": 11073, "big": false, "lon": 152.8455, "lat": -31.08212, "km": 0.0}]}, "0000264": {"centres": [{"name": "Wollongong", "kind": "sua", "suaId": 35, "type": "Significant Urban Area", "pop": 280153, "big": false, "lon": 150.84681, "lat": -34.66292, "km": 0.0}, {"name": "Kiama", "kind": "town", "pop": 14761, "type": "Major Town", "lon": 150.84861, "lat": -34.65998, "km": 0.3}]}, "0000516": {"centres": [{"name": "Lithgow", "kind": "sua", "suaId": 18, "type": "Significant Urban Area", "pop": 11197, "big": false, "lon": 150.13673, "lat": -33.48115, "km": 0.0}]}, "0000518": {"centres": [{"name": "Medowie", "kind": "sua", "suaId": 19, "type": "Significant Urban Area", "pop": 10019, "big": false, "lon": 151.86016, "lat": -32.77214, "km": 0.0}], "dests": [{"name": "Newcastle Airport (NTL)", "ftype": "International Airport", "lon": 151.8348, "lat": -32.7953, "km": 1.8}]}, "0000216": {"centres": [{"name": "Mudgee", "kind": "sua", "suaId": 21, "type": "Significant Urban Area", "pop": 11563, "big": false, "lon": 149.54023, "lat": -32.56768, "km": 0.0}]}, "0000018": {"centres": [{"name": "Mudgee", "kind": "sua", "suaId": 21, "type": "Significant Urban Area", "pop": 11563, "big": false, "lon": 149.58698, "lat": -32.59928, "km": 0.0}, {"name": "Lithgow", "kind": "sua", "suaId": 18, "type": "Significant Urban Area", "pop": 11197, "big": false, "lon": 150.10431, "lat": -33.42516, "km": 0.0}, {"name": "Gulgong", "kind": "town", "pop": 2057, "type": "Town Centre", "lon": 149.53419, "lat": -32.3618, "km": 0.6}, {"name": "Coonamble", "kind": "town", "pop": 2353, "type": "Town Centre", "lon": 148.38086, "lat": -30.96225, "km": 0.9}, {"name": "Wallerawang", "kind": "town", "pop": 2079, "type": "Town Centre", "lon": 150.0759, "lat": -33.40278, "km": 0.9}, {"name": "Gilgandra", "kind": "town", "pop": 2417, "type": "Town Centre", "lon": 148.65151, "lat": -31.70441, "km": 1.3}], "hospitals": [{"name": "Walgett Health Service", "cat": "Remote Major Hospital (15+ beds)", "beds": 15, "lon": 148.1167, "lat": -30.0167, "km": 0.1}, {"name": "Mudgee District Hospital", "cat": "Remote Major Hospital (15+ beds)", "beds": 45, "lon": 149.5875, "lat": -32.5944, "km": 0.5}]}, "0000208": {"centres": [{"name": "Mudgee", "kind": "sua", "suaId": 21, "type": "Significant Urban Area", "pop": 11563, "big": false, "lon": 149.58898, "lat": -32.58991, "km": 0.0}], "hospitals": [{"name": "Mudgee District Hospital", "cat": "Remote Major Hospital (15+ beds)", "beds": 45, "lon": 149.5875, "lat": -32.5944, "km": 0.5}], "dests": [{"name": "Mudgee Airport", "ftype": "Regional Airport", "lon": 149.6108, "lat": -32.5625, "km": 1.4}]}, "0000209": {"centres": [{"name": "Muswellbrook", "kind": "sua", "suaId": 22, "type": "Significant Urban Area", "pop": 10901, "big": false, "lon": 150.81796, "lat": -32.31425, "km": 0.0}]}, "0000108": {"centres": [{"name": "Newcastle - Maitland", "kind": "sua", "suaId": 24, "type": "Significant Urban Area", "pop": 348539, "big": true, "lon": 151.73211, "lat": -32.88705, "km": 0.0}, {"name": "Nelson Bay", "kind": "sua", "suaId": 23, "type": "Significant Urban Area", "pop": 14593, "big": false, "lon": 152.06563, "lat": -32.76913, "km": 0.0}, {"name": "Medowie", "kind": "sua", "suaId": 19, "type": "Significant Urban Area", "pop": 10019, "big": false, "lon": 151.84983, "lat": -32.80802, "km": 0.0}, {"name": "Anna Bay - Boat Harbour", "kind": "town", "pop": 4241, "type": "Town Centre", "lon": 152.10168, "lat": -32.78143, "km": 2.5}, {"name": "Salamander Bay - Soldiers Point", "kind": "town", "pop": 5605, "type": "Town Centre", "lon": 152.07575, "lat": -32.72433, "km": 3.8}, {"name": "Lemon Tree Passage", "kind": "town", "pop": 2680, "type": "Town Centre", "lon": 152.03244, "lat": -32.73363, "km": 3.9}, {"name": "Tanilba Bay", "kind": "town", "pop": 4182, "type": "Town Centre", "lon": 152.00224, "lat": -32.73257, "km": 3.9}], "dests": [{"name": "Newcastle Airport (NTL)", "ftype": "International Airport", "lon": 151.8348, "lat": -32.7953, "km": 2.0}]}, "0000301": {"centres": [{"name": "Raymond Terrace", "kind": "town", "pop": 14081, "type": "Major Town", "lon": 151.74576, "lat": -32.77625, "km": 3.2}]}, "0000302": {"centres": [{"name": "Newcastle - Maitland", "kind": "sua", "suaId": 24, "type": "Significant Urban Area", "pop": 348539, "big": true, "lon": 151.70042, "lat": -32.82179, "km": 0.0}, {"name": "Medowie", "kind": "sua", "suaId": 19, "type": "Significant Urban Area", "pop": 10019, "big": false, "lon": 151.83011, "lat": -32.81841, "km": 0.0}, {"name": "Raymond Terrace", "kind": "town", "pop": 14081, "type": "Major Town", "lon": 151.74576, "lat": -32.77625, "km": 4.9}], "dests": [{"name": "Newcastle Airport (NTL)", "ftype": "International Airport", "lon": 151.8348, "lat": -32.7953, "km": 2.3}]}, "0000128": {"centres": [{"name": "Singleton", "kind": "sua", "suaId": 28, "type": "Significant Urban Area", "pop": 14229, "big": false, "lon": 151.16352, "lat": -32.57078, "km": 0.0}]}, "0007774": {"centres": [{"name": "Singleton", "kind": "sua", "suaId": 28, "type": "Significant Urban Area", "pop": 14229, "big": false, "lon": 151.17178, "lat": -32.56064, "km": 0.0}]}, "0007631": {"centres": [{"name": "St Georges Basin - Sanctuary Point", "kind": "sua", "suaId": 29, "type": "Significant Urban Area", "pop": 11000, "big": false, "lon": 150.61344, "lat": -35.10285, "km": 0.0}, {"name": "Vincentia", "kind": "town", "pop": 2705, "type": "Town Centre", "lon": 150.68162, "lat": -35.07223, "km": 0.7}]}, "0007634": {"centres": [{"name": "St Georges Basin - Sanctuary Point", "kind": "sua", "suaId": 29, "type": "Significant Urban Area", "pop": 11000, "big": false, "lon": 150.65798, "lat": -35.07846, "km": 0.0}, {"name": "Vincentia", "kind": "town", "pop": 2705, "type": "Town Centre", "lon": 150.68162, "lat": -35.07223, "km": 2.0}]}, "0000192": {"centres": [{"name": "Taree", "kind": "sua", "suaId": 32, "type": "Significant Urban Area", "pop": 18110, "big": false, "lon": 152.36692, "lat": -31.86941, "km": 0.0}, {"name": "Wingham", "kind": "town", "pop": 4556, "type": "Town Centre", "lon": 152.36595, "lat": -31.86854, "km": 0.1}], "hospitals": [{"name": "Manning Base Hospital (Taree)", "cat": "Regional Major Hospital (100+ beds)", "beds": 110, "lon": 152.4667, "lat": -31.9, "km": 1.7}]}, "0007776": {"centres": [{"name": "Taree", "kind": "sua", "suaId": 32, "type": "Significant Urban Area", "pop": 18110, "big": false, "lon": 152.53315, "lat": -31.89973, "km": 0.0}], "hospitals": [{"name": "Manning Base Hospital (Taree)", "cat": "Regional Major Hospital (100+ beds)", "beds": 110, "lon": 152.4667, "lat": -31.9, "km": 0.9}]}, "0000550": {"centres": [{"name": "Tocumwal", "kind": "town", "pop": 2587, "type": "Town Centre", "lon": 145.58329, "lat": -35.80812, "km": 1.4}, {"name": "Yarrawonga - Mulwala (Mulwala Part)", "kind": "town", "pop": 2389, "type": "Town Centre", "lon": 146.00017, "lat": -35.98889, "km": 2.3}]}, "0000314": {"centres": [{"name": "Yarrawonga - Mulwala (Mulwala Part)", "kind": "town", "pop": 2389, "type": "Town Centre", "lon": 146.00017, "lat": -35.98889, "km": 0.4}, {"name": "Corowa - Wahgunyah (Corowa Part)", "kind": "town", "pop": 5444, "type": "Town Centre", "lon": 146.37284, "lat": -36.0069, "km": 0.4}]}, "0007734": {"centres": [{"name": "Ballina", "kind": "sua", "suaId": 2, "type": "Significant Urban Area", "pop": 18532, "big": false, "lon": 153.41194, "lat": -28.82098, "km": 0.0}, {"name": "Wollongbar", "kind": "town", "pop": 2988, "type": "Town Centre", "lon": 153.42029, "lat": -28.82326, "km": 0.3}, {"name": "Alstonville", "kind": "town", "pop": 5182, "type": "Town Centre", "lon": 153.44157, "lat": -28.83834, "km": 2.3}, {"name": "Cumbalum", "kind": "town", "pop": 2011, "type": "Town Centre", "lon": 153.53529, "lat": -28.82221, "km": 3.4}]}, "0000145": {"centres": [{"name": "Casino", "kind": "town", "pop": 9968, "type": "Major Town", "lon": 153.04757, "lat": -28.8631, "km": 1.0}]}, "0000004": {"centres": [{"name": "Cooma", "kind": "town", "pop": 6447, "type": "Town Centre", "lon": 149.13358, "lat": -36.23335, "km": 0.6}, {"name": "Tumut", "kind": "town", "pop": 6518, "type": "Town Centre", "lon": 148.21946, "lat": -35.30924, "km": 1.1}]}, "0000019": {"centres": [{"name": "Cooma", "kind": "town", "pop": 6447, "type": "Town Centre", "lon": 149.13358, "lat": -36.23335, "km": 0.2}]}, "0007624": {"centres": [{"name": "Cooma", "kind": "town", "pop": 6447, "type": "Town Centre", "lon": 149.13358, "lat": -36.23335, "km": 1.1}]}, "0007625": {"centres": [{"name": "Cooma", "kind": "town", "pop": 6447, "type": "Town Centre", "lon": 149.13358, "lat": -36.23335, "km": 0.7}]}, "0000235": {"centres": [{"name": "Cootamundra", "kind": "town", "pop": 5732, "type": "Town Centre", "lon": 148.02624, "lat": -34.63794, "km": 0.7}]}, "0000087": {"centres": [{"name": "Cootamundra", "kind": "town", "pop": 5732, "type": "Town Centre", "lon": 148.02624, "lat": -34.63794, "km": 0.6}]}, "0000086": {"centres": [{"name": "Corowa - Wahgunyah (Corowa Part)", "kind": "town", "pop": 5444, "type": "Town Centre", "lon": 146.37284, "lat": -36.0069, "km": 4.1}]}, "0000056": {"centres": [{"name": "Cowra", "kind": "town", "pop": 8254, "type": "Major Town", "lon": 148.67271, "lat": -33.83857, "km": 0.9}, {"name": "Forbes", "kind": "town", "pop": 6837, "type": "Town Centre", "lon": 148.00647, "lat": -33.38474, "km": 0.3}], "hospitals": [{"name": "Cowra District Hospital", "cat": "Remote Major Hospital (15+ beds)", "beds": 30, "lon": 148.6833, "lat": -33.8333, "km": 0.3}, {"name": "Forbes District Hospital", "cat": "Remote Major Hospital (15+ beds)", "beds": 25, "lon": 148.0, "lat": -33.3833, "km": 0.9}]}, "0000310": {"centres": [{"name": "Cowra", "kind": "town", "pop": 8254, "type": "Major Town", "lon": 148.67271, "lat": -33.83857, "km": 1.3}], "hospitals": [{"name": "Cowra District Hospital", "cat": "Remote Major Hospital (15+ beds)", "beds": 30, "lon": 148.6833, "lat": -33.8333, "km": 0.2}]}, "0000576": {"centres": [{"name": "Cowra", "kind": "town", "pop": 8254, "type": "Major Town", "lon": 148.67271, "lat": -33.83857, "km": 2.1}], "hospitals": [{"name": "Cowra District Hospital", "cat": "Remote Major Hospital (15+ beds)", "beds": 30, "lon": 148.6833, "lat": -33.8333, "km": 1.2}]}, "0007605": {"centres": [{"name": "Deniliquin", "kind": "town", "pop": 6431, "type": "Town Centre", "lon": 144.95493, "lat": -35.54307, "km": 1.1}]}, "0000094": {"centres": [{"name": "Deniliquin", "kind": "town", "pop": 6431, "type": "Town Centre", "lon": 144.95493, "lat": -35.54307, "km": 1.1}]}, "0000552": {"centres": [{"name": "Deniliquin", "kind": "town", "pop": 6431, "type": "Town Centre", "lon": 144.95493, "lat": -35.54307, "km": 3.3}]}, "0000240": {"centres": [{"name": "Wagga Wagga", "kind": "town", "type": "Regional City", "pop": 49686, "lon": 147.36147, "lat": -35.14427, "km": 8.4, "endpoint": true}, {"name": "Estella", "kind": "town", "pop": 6782, "type": "Town Centre", "lon": 147.35383, "lat": -35.06779, "km": 2.4}]}, "0000350": {"centres": [{"name": "Forbes", "kind": "town", "pop": 6837, "type": "Town Centre", "lon": 148.00647, "lat": -33.38474, "km": 0.5}], "hospitals": [{"name": "Forbes District Hospital", "cat": "Remote Major Hospital (15+ beds)", "beds": 25, "lon": 148.0, "lat": -33.3833, "km": 1.0}]}, "0000377": {"centres": [{"name": "Forbes", "kind": "town", "pop": 6837, "type": "Town Centre", "lon": 148.00647, "lat": -33.38474, "km": 1.0}, {"name": "Condobolin", "kind": "town", "pop": 2579, "type": "Town Centre", "lon": 147.1474, "lat": -33.08551, "km": 1.5}], "hospitals": [{"name": "Forbes District Hospital", "cat": "Remote Major Hospital (15+ beds)", "beds": 25, "lon": 148.0, "lat": -33.3833, "km": 1.6}]}, "0000236": {"centres": [{"name": "Forbes", "kind": "town", "pop": 6837, "type": "Town Centre", "lon": 148.00647, "lat": -33.38474, "km": 4.5}]}, "0007706": {"centres": [{"name": "Glen Innes", "kind": "town", "pop": 5184, "type": "Town Centre", "lon": 151.73072, "lat": -29.73715, "km": 0.7}]}, "0000029": {"centres": [{"name": "Gunnedah", "kind": "town", "pop": 8338, "type": "Major Town", "lon": 150.24043, "lat": -30.96581, "km": 1.0}, {"name": "Quirindi", "kind": "town", "pop": 2602, "type": "Town Centre", "lon": 150.68127, "lat": -31.50823, "km": 1.1}, {"name": "Narrabri", "kind": "town", "pop": 5499, "type": "Town Centre", "lon": 149.77456, "lat": -30.33011, "km": 1.8}], "hospitals": [{"name": "Walgett Health Service", "cat": "Remote Major Hospital (15+ beds)", "beds": 15, "lon": 148.1167, "lat": -30.0167, "km": 0.5}, {"name": "Bourke District Hospital", "cat": "Remote Major Hospital (15+ beds)", "beds": 20, "lon": 145.9333, "lat": -30.0833, "km": 1.3}, {"name": "Narrabri District Hospital", "cat": "Remote Major Hospital (15+ beds)", "beds": 30, "lon": 149.7833, "lat": -30.3333, "km": 2.1}]}, "0000678": {"centres": [{"name": "Sydney", "kind": "sua", "suaId": 30, "type": "Significant Urban Area", "pop": 4698656, "big": true, "lon": 150.99357, "lat": -34.14569, "km": 0.0}, {"name": "Wollongong", "kind": "sua", "suaId": 35, "type": "Significant Urban Area", "pop": 280153, "big": false, "lon": 150.99137, "lat": -34.14733, "km": 0.0}, {"name": "Helensburgh", "kind": "town", "pop": 6304, "type": "Town Centre", "lon": 150.9903, "lat": -34.18736, "km": 1.9}]}, "0000185": {"centres": [{"name": "Wollongong", "kind": "sua", "suaId": 35, "type": "Significant Urban Area", "pop": 280153, "big": false, "lon": 150.91333, "lat": -34.32428, "km": 0.0}, {"name": "Helensburgh", "kind": "town", "pop": 6304, "type": "Town Centre", "lon": 150.9903, "lat": -34.18736, "km": 2.7}]}, "0000393": {"centres": [{"name": "Sydney", "kind": "sua", "suaId": 30, "type": "Significant Urban Area", "pop": 4698656, "big": true, "lon": 150.99391, "lat": -34.1332, "km": 0.0}, {"name": "Wollongong", "kind": "sua", "suaId": 35, "type": "Significant Urban Area", "pop": 280153, "big": false, "lon": 151.01599, "lat": -34.18694, "km": 0.0}, {"name": "Helensburgh", "kind": "town", "pop": 6304, "type": "Town Centre", "lon": 150.9903, "lat": -34.18736, "km": 1.8}]}, "0000187": {"centres": [{"name": "Inverell", "kind": "town", "pop": 9654, "type": "Major Town", "lon": 151.11403, "lat": -29.78144, "km": 1.4}], "hospitals": [{"name": "Inverell District Hospital", "cat": "Remote Major Hospital (15+ beds)", "beds": 40, "lon": 151.1167, "lat": -29.7833, "km": 1.8}]}, "0000073": {"centres": [{"name": "Inverell", "kind": "town", "pop": 9654, "type": "Major Town", "lon": 151.11403, "lat": -29.78144, "km": 0.5}, {"name": "Uralla", "kind": "town", "pop": 2385, "type": "Town Centre", "lon": 151.49315, "lat": -30.64209, "km": 0.6}], "hospitals": [{"name": "Inverell District Hospital", "cat": "Remote Major Hospital (15+ beds)", "beds": 40, "lon": 151.1167, "lat": -29.7833, "km": 0.2}]}, "0000137": {"centres": [{"name": "Inverell", "kind": "town", "pop": 9654, "type": "Major Town", "lon": 151.11403, "lat": -29.78144, "km": 0.9}], "hospitals": [{"name": "Inverell District Hospital", "cat": "Remote Major Hospital (15+ beds)", "beds": 40, "lon": 151.1167, "lat": -29.7833, "km": 1.2}]}, "0007735": {"centres": [{"name": "Ballina", "kind": "sua", "suaId": 2, "type": "Significant Urban Area", "pop": 18532, "big": false, "lon": 153.52716, "lat": -28.78469, "km": 0.0}, {"name": "Lennox Head", "kind": "town", "pop": 7483, "type": "Major Town", "lon": 153.58973, "lat": -28.80298, "km": 2.5}, {"name": "Cumbalum", "kind": "town", "pop": 2011, "type": "Town Centre", "lon": 153.53529, "lat": -28.82221, "km": 3.8}]}, "0007637": {"centres": [{"name": "Merimbula", "kind": "town", "pop": 8220, "type": "Major Town", "lon": 149.90962, "lat": -36.886, "km": 0.4}], "dests": [{"name": "Merimbula Airport", "ftype": "Regional Airport", "lon": 149.9011, "lat": -36.9086, "km": 2.0}]}, "0007622": {"centres": [{"name": "Merimbula", "kind": "town", "pop": 8220, "type": "Major Town", "lon": 149.90962, "lat": -36.886, "km": 0.2}], "dests": [{"name": "Merimbula Airport", "ftype": "Regional Airport", "lon": 149.9011, "lat": -36.9086, "km": 1.7}]}, "0007621": {"centres": [{"name": "Merimbula", "kind": "town", "pop": 8220, "type": "Major Town", "lon": 149.90962, "lat": -36.886, "km": 0.2}], "dests": [{"name": "Merimbula Airport", "ftype": "Regional Airport", "lon": 149.9011, "lat": -36.9086, "km": 2.3}]}, "0007784": {"centres": [{"name": "Moree", "kind": "town", "pop": 7070, "type": "Major Town", "lon": 149.84107, "lat": -29.47786, "km": 0.3}], "hospitals": [{"name": "Moree District Hospital", "cat": "Remote Major Hospital (15+ beds)", "beds": 40, "lon": 149.8333, "lat": -29.4667, "km": 0.7}], "dests": [{"name": "Moree Airport", "ftype": "Regional Airport", "lon": 149.845, "lat": -29.4989, "km": 2.2}]}, "0000028": {"centres": [{"name": "Moree", "kind": "town", "pop": 7070, "type": "Major Town", "lon": 149.84107, "lat": -29.47786, "km": 2.6}], "hospitals": [{"name": "Moree District Hospital", "cat": "Remote Major Hospital (15+ beds)", "beds": 40, "lon": 149.8333, "lat": -29.4667, "km": 1.8}]}, "0007527": {"centres": [{"name": "Moree", "kind": "town", "pop": 7070, "type": "Major Town", "lon": 149.84107, "lat": -29.47786, "km": 1.2}], "hospitals": [{"name": "Moree District Hospital", "cat": "Remote Major Hospital (15+ beds)", "beds": 40, "lon": 149.8333, "lat": -29.4667, "km": 2.6}], "dests": [{"name": "Moree Airport", "ftype": "Regional Airport", "lon": 149.845, "lat": -29.4989, "km": 1.2}]}, "0000025": {"centres": [{"name": "Wollongong", "kind": "sua", "suaId": 35, "type": "Significant Urban Area", "pop": 280153, "big": false, "lon": 150.75447, "lat": -34.57237, "km": 0.0},