{
"type": "FeatureCollection",
"name": "towns_cv",
"crs": { "type": "name", "properties": { "name": "urn:ogc:def:crs:OGC:1.3:CRS84" } },
"features": [
{ "type": "Feature", "properties": { "name": "Sydney", "population": 4698656.0, "town_type": "Regional City" }, "geometry": { "type": "Point", "coordinates": [ 150.96692716680684, -33.84169334481664 ] } },
{ "type": "Feature", "properties": { "name": "Canberra - Queanbeyan (Queanbeyan Part)", "population": 37511.0, "town_type": "Regional City" }, "geometry": { "type": "Point", "coordinates": [ 149.220228767831486, -35.366417566922223 ] } },
{ "type": "Feature", "properties": { "name": "Central Coast", "population": 325255.0, "town_type": "Regional City" }, "geometry": { "type": "Point", "coordinates": [ 151.428768100245435, -33.366007155838204 ] } },
{ "type": "Feature", "properties": { "name": "Gold Coast - Tweed Heads (Tweed Heads Part)", "population": 63721.0, "town_type": "Regional City" }, "geometry": { "type": "Point", "coordinates": [ 153.529594741771575, -28.222369369131993 ] } },
{ "type": "Feature", "properties": { "name": "Newcastle", "population": 348539.0, "town_type": "Regional City" }, "geometry": { "type": "Point", "coordinates": [ 151.677234574065437, -32.950991034403756 ] } },
{ "type": "Feature", "properties": { "name": "Wollongong", "population": 280153.0, "town_type": "Regional City" }, "geometry": { "type": "Point", "coordinates": [ 150.846046171425002, -34.471489850462419 ] } },
{ "type": "Feature", "properties": { "name": "Albury - Wodonga (Albury Part)", "population": 53677.0, "town_type": "Regional City" }, "geometry": { "type": "Point", "coordinates": [ 146.948827477906804, -36.05031131766885 ] } },
{ "type": "Feature", "properties": { "name": "Coffs Harbour", "population": 51069.0, "town_type": "Regional City" }, "geometry": { "type": "Point", "coordinates": [ 153.095738164193421, -30.312297752271277 ] } },
{ "type": "Feature", "properties": { "name": "Maitland (NSW)", "population": 89597.0, "town_type": "Regional City" }, "geometry": { "type": "Point", "coordinates": [ 151.587175404582041, -32.750089720513799 ] } },
{ "type": "Feature", "properties": { "name": "Armidale", "population": 21312.0, "town_type": "Regional City" }, "geometry": { "type": "Point", "coordinates": [ 151.666086174240746, -30.511790187053148 ] } },
{ "type": "Feature", "properties": { "name": "Bathurst", "population": 36230.0, "town_type": "Regional City" }, "geometry": { "type": "Point", "coordinates": [ 149.582613708881468, -33.415107725802969 ] } },
{ "type": "Feature", "properties": { "name": "Blue Mountains", "population": 30049.0, "town_type": "Regional City" }, "geometry": { "type": "Point", "coordinates": [ 150.380057885499497, -33.720861092852985 ] } },
{ "type": "Feature", "properties": { "name": "Bowral - Mittagong", "population": 23762.0, "town_type": "Regional City" }, "geometry": { "type": "Point", "coordinates": [ 150.441020332315219, -34.477335825298745 ] } },
{ "type": "Feature", "properties": { "name": "Cessnock", "population": 23211.0, "town_type": "Regional City" }, "geometry": { "type": "Point", "coordinates": [ 151.348164894695373, -32.829749154873852 ] } },
{ "type": "Feature", "properties": { "name": "Dubbo", "population": 38783.0, "town_type": "Regional City" }, "geometry": { "type": "Point", "coordinates": [ 148.611290802510098, -32.244959844814105 ] } },
{ "type": "Feature", "properties": { "name": "Echuca - Moama (Moama Part)", "population": 6654.0, "town_type": "Town Centre" }, "geometry": { "type": "Point", "coordinates": [ 144.729805267909256, -36.090674316551301 ] } },
{ "type": "Feature", "properties": { "name": "Forster - Tuncurry", "population": 20554.0, "town_type": "Regional City" }, "geometry": { "type": "Point", "coordinates": [ 152.519926196141114, -32.192901785074795 ] } },
{ "type": "Feature", "properties": { "name": "Goulburn", "population": 23963.0, "town_type": "Regional City" }, "geometry": { "type": "Point", "coordinates": [ 149.727763924516751, -34.747934216203134 ] } },
{ "type": "Feature", "properties": { "name": "Griffith", "population": 20799.0, "town_type": "Regional City" }, "geometry": { "type": "Point", "coordinates": [ 146.05579070787536, -34.275529860262189 ] } },
{ "type": "Feature", "properties": { "name": "Kurri Kurri", "population": 20015.0, "town_type": "Regional City" }, "geometry": { "type": "Point", "coordinates": [ 151.471844540732974, -32.810080443012893 ] } },
{ "type": "Feature", "properties": { "name": "Lismore (NSW)", "population": 27916.0, "town_type": "Regional City" }, "geometry": { "type": "Point", "coordinates": [ 153.293397889510118, -28.818556986693714 ] } },
{ "type": "Feature", "properties": { "name": "Mildura - Buronga (Buronga Part)", "population": 2400.0, "town_type": "Town Centre" }, "geometry": { "type": "Point", "coordinates": [ 142.196598237899678, -34.175750392481255 ] } },
{ "type": "Feature", "properties": { "name": "Morisset - Cooranbong", "population": 22150.0, "town_type": "Regional City" }, "geometry": { "type": "Point", "coordinates": [ 151.490155524747763, -33.095289690995301 ] } },
{ "type": "Feature", "properties": { "name": "Nowra - Bomaderry", "population": 33583.0, "town_type": "Regional City" }, "geometry": { "type": "Point", "coordinates": [ 150.598778383840454, -34.877922533178698 ] } },
{ "type": "Feature", "properties": { "name": "Orange", "population": 40127.0, "town_type": "Regional City" }, "geometry": { "type": "Point", "coordinates": [ 149.100046735375571, -33.274760519541928 ] } },
{ "type": "Feature", "properties": { "name": "Port Macquarie", "population": 47793.0, "town_type": "Regional City" }, "geometry": { "type": "Point", "coordinates": [ 152.894423612924612, -31.452519511780267 ] } },
{ "type": "Feature", "properties": { "name": "Tamworth", "population": 35415.0, "town_type": "Regional City" }, "geometry": { "type": "Point", "coordinates": [ 150.913867260801396, -31.100120025387248 ] } },
{ "type": "Feature", "properties": { "name": "Wagga Wagga", "population": 49686.0, "town_type": "Regional City" }, "geometry": { "type": "Point", "coordinates": [ 147.361468517938647, -35.144269853320424 ] } },
{ "type": "Feature", "properties": { "name": "Ballina", "population": 18532.0, "town_type": "Major Town" }, "geometry": { "type": "Point", "coordinates": [ 153.566339698338965, -28.857730765498978 ] } },
{ "type": "Feature", "properties": { "name": "Batemans Bay", "population": 12263.0, "town_type": "Major Town" }, "geometry": { "type": "Point", "coordinates": [ 150.192791577170823, -35.718081557751418 ] } },
{ "type": "Feature", "properties": { "name": "Broken Hill", "population": 17456.0, "town_type": "Major Town" }, "geometry": { "type": "Point", "coordinates": [ 141.455792124055677, -31.963917630135079 ] } },
{ "type": "Feature", "properties": { "name": "Byron Bay", "population": 10538.0, "town_type": "Major Town" }, "geometry": { "type": "Point", "coordinates": [ 153.602425741441863, -28.652194340050851 ] } },
{ "type": "Feature", "properties": { "name": "Grafton", "population": 17155.0, "town_type": "Major Town" }, "geometry": { "type": "Point", "coordinates": [ 152.9325636221553, -29.70964806019165 ] } },
{ "type": "Feature", "properties": { "name": "Kempsey", "population": 11073.0, "town_type": "Major Town" }, "geometry": { "type": "Point", "coordinates": [ 152.79934784431677, -31.077383430527906 ] } },
{ "type": "Feature", "properties": { "name": "Kiama", "population": 14761.0, "town_type": "Major Town" }, "geometry": { "type": "Point", "coordinates": [ 150.848605553519263, -34.659976408740739 ] } },
{ "type": "Feature", "properties": { "name": "Lithgow", "population": 11197.0, "town_type": "Major Town" }, "geometry": { "type": "Point", "coordinates": [ 150.159060145341584, -33.481025081360457 ] } },
{ "type": "Feature", "properties": { "name": "Medowie", "population": 10019.0, "town_type": "Major Town" }, "geometry": { "type": "Point", "coordinates": [ 151.869855912723381, -32.740093708499607 ] } },
{ "type": "Feature", "properties": { "name": "Mudgee", "population": 11563.0, "town_type": "Major Town" }, "geometry": { "type": "Point", "coordinates": [ 149.569422107865648, -32.596538172453293 ] } },
{ "type": "Feature", "properties": { "name": "Muswellbrook", "population": 10901.0, "town_type": "Major Town" }, "geometry": { "type": "Point", "coordinates": [ 150.890763566664788, -32.273302642387364 ] } },
{ "type": "Feature", "properties": { "name": "Nelson Bay", "population": 14593.0, "town_type": "Major Town" }, "geometry": { "type": "Point", "coordinates": [ 152.134207419667604, -32.725718440026476 ] } },
{ "type": "Feature", "properties": { "name": "Raymond Terrace", "population": 14081.0, "town_type": "Major Town" }, "geometry": { "type": "Point", "coordinates": [ 151.74575787582836, -32.776252255685712 ] } },
{ "type": "Feature", "properties": { "name": "Singleton", "population": 14229.0, "town_type": "Major Town" }, "geometry": { "type": "Point", "coordinates": [ 151.163307914178631, -32.552742896064984 ] } },
{ "type": "Feature", "properties": { "name": "St Georges Basin - Sanctuary Point", "population": 11000.0, "town_type": "Major Town" }, "geometry": { "type": "Point", "coordinates": [ 150.614064940204628, -35.098366807714207 ] } },
{ "type": "Feature", "properties": { "name": "Taree", "population": 18110.0, "town_type": "Major Town" }, "geometry": { "type": "Point", "coordinates": [ 152.457622692490418, -31.89313041331167 ] } },
{ "type": "Feature", "properties": { "name": "Ulladulla", "population": 14396.0, "town_type": "Major Town" }, "geometry": { "type": "Point", "coordinates": [ 150.461106271960233, -35.355043278055462 ] } },
{ "type": "Feature", "properties": { "name": "Yarrawonga - Mulwala (Mulwala Part)", "population": 2389.0, "town_type": "Town Centre" }, "geometry": { "type": "Point", "coordinates": [ 146.000169855215972, -35.98888686573428 ] } },
{ "type": "Feature", "properties": { "name": "Alstonville", "population": 5182.0, "town_type": "Town Centre" }, "geometry": { "type": "Point", "coordinates": [ 153.441570790968967, -28.838335863821804 ] } },
{ "type": "Feature", "properties": { "name": "Camden Haven", "population": 8037.0, "town_type": "Major Town" }, "geometry": { "type": "Point", "coordinates": [ 152.797075120923267, -31.639911073900489 ] } },
{ "type": "Feature", "properties": { "name": "Casino", "population": 9968.0, "town_type": "Major Town" }, "geometry": { "type": "Point", "coordinates": [ 153.047570688598228, -28.863102807727234 ] } },
{ "type": "Feature", "properties": { "name": "Cootamundra", "population": 5732.0, "town_type": "Town Centre" }, "geometry": { "type": "Point", "coordinates": [ 148.02623582001894, -34.637941076468998 ] } },
{ "type": "Feature", "properties": { "name": "Corowa - Wahgunyah (Corowa Part)", "population": 5444.0, "town_type": "Town Centre" }, "geometry": { "type": "Point", "coordinates": [ 146.372836874400519, -36.006896737447157 ] } },
{ "type": "Feature", "properties": { "name": "Cowra", "population": 8254.0, "town_type": "Major Town" }, "geometry": { "type": "Point", "coordinates": [ 148.672710074423378, -33.838573091058009 ] } },
{ "type": "Feature", "properties": { "name": "Deniliquin", "population": 6431.0, "town_type": "Town Centre" }, "geometry": { "type": "Point", "coordinates": [ 144.954929968941286, -35.54306928517542 ] } },
{ "type": "Feature", "properties": { "name": "Estella", "population": 6782.0, "town_type": "Town Centre" }, "geometry": { "type": "Point", "coordinates": [ 147.353830095689204, -35.067786579409798 ] } },
{ "type": "Feature", "properties": { "name": "Forbes", "population": 6837.0, "town_type": "Town Centre" }, "geometry": { "type": "Point", "coordinates": [ 148.006470492269273, -33.384743329364234 ] } },
{ "type": "Feature", "properties": { "name": "Glen Innes", "population": 5184.0, "town_type": "Town Centre" }, "geometry": { "type": "Point", "coordinates": [ 151.730716821686684, -29.737145611353661 ] } },
{ "type": "Feature", "properties": { "name": "Googong", "population": 6224.0, "town_type": "Town Centre" }, "geometry": { "type": "Point", "coordinates": [ 149.234189205879943, -35.428037984636624 ] } },
{ "type": "Feature", "properties": { "name": "Gunnedah", "population": 8338.0, "town_type": "Major Town" }, "geometry": { "type": "Point", "coordinates": [ 150.240433190226554, -30.965806257029406 ] } },
{ "type": "Feature", "properties": { "name": "Helensburgh", "population": 6304.0, "town_type": "Town Centre" }, "geometry": { "type": "Point", "coordinates": [ 150.99030006678737, -34.187355014991937 ] } },
{ "type": "Feature", "properties": { "name": "Inverell", "population": 9654.0, "town_type": "Major Town" }, "geometry": { "type": "Point", "coordinates": [ 151.114029048735347, -29.781436444058265 ] } },
{ "type": "Feature", "properties": { "name": "Leeton", "population": 7437.0, "town_type": "Major Town" }, "geometry": { "type": "Point", "coordinates": [ 146.405539015528063, -34.551389095960722 ] } },
{ "type": "Feature", "properties": { "name": "Lennox Head", "population": 7483.0, "town_type": "Major Town" }, "geometry": { "type": "Point", "coordinates": [ 153.589727733281222, -28.802982535272751 ] } },
{ "type": "Feature", "properties": { "name": "Moree", "population": 7070.0, "town_type": "Major Town" }, "geometry": { "type": "Point", "coordinates": [ 149.841068618143368, -29.477856600628815 ] } },
{ "type": "Feature", "properties": { "name": "Moss Vale", "population": 8774.0, "town_type": "Major Town" }, "geometry": { "type": "Point", "coordinates": [ 150.381979092976536, -34.549435124961775 ] } },
{ "type": "Feature", "properties": { "name": "Murwillumbah", "population": 9812.0, "town_type": "Major Town" }, "geometry": { "type": "Point", "coordinates": [ 153.404728899707237, -28.33267699405398 ] } },
{ "type": "Feature", "properties": { "name": "Nambucca Heads", "population": 6668.0, "town_type": "Town Centre" }, "geometry": { "type": "Point", "coordinates": [ 152.988950222449802, -30.65441877321507 ] } },
{ "type": "Feature", "properties": { "name": "Narrabri", "population": 5499.0, "town_type": "Town Centre" }, "geometry": { "type": "Point", "coordinates": [ 149.774558891423027, -30.330112907835328 ] } },
{ "type": "Feature", "properties": { "name": "Parkes", "population": 9832.0, "town_type": "Major Town" }, "geometry": { "type": "Point", "coordinates": [ 148.17638589938818, -33.141016812636714 ] } },
{ "type": "Feature", "properties": { "name": "Pottsville", "population": 7209.0, "town_type": "Major Town" }, "geometry": { "type": "Point", "coordinates": [ 153.561070161132932, -28.378135978355132 ] } },
{ "type": "Feature", "properties": { "name": "Richmond North", "population": 5467.0, "town_type": "Town Centre" }, "geometry": { "type": "Point", "coordinates": [ 150.706179248343147, -33.583585692069398 ] } },
{ "type": "Feature", "properties": { "name": "Salamander Bay - Soldiers Point", "population": 5605.0, "town_type": "Town Centre" }, "geometry": { "type": "Point", "coordinates": [ 152.075747405264167, -32.724329424468166 ] } },
{ "type": "Feature", "properties": { "name": "Scone", "population": 5013.0, "town_type": "Town Centre" }, "geometry": { "type": "Point", "coordinates": [ 150.858278612860602, -32.043490904994236 ] } },
{ "type": "Feature", "properties": { "name": "Silverdale - Warragamba", "population": 5364.0, "town_type": "Town Centre" }, "geometry": { "type": "Point", "coordinates": [ 150.611761360157317, -33.900275876023855 ] } },
{ "type": "Feature", "properties": { "name": "South West Rocks", "population": 5443.0, "town_type": "Town Centre" }, "geometry": { "type": "Point", "coordinates": [ 153.05269627474982, -30.896986816772536 ] } },
{ "type": "Feature", "properties": { "name": "Summerland Point - Gwandalan", "population": 6492.0, "town_type": "Town Centre" }, "geometry": { "type": "Point", "coordinates": [ 151.575316980508404, -33.137123825791917 ] } },
{ "type": "Feature", "properties": { "name": "Tahmoor", "population": 5014.0, "town_type": "Town Centre" }, "geometry": { "type": "Point", "coordinates": [ 150.593674673634894, -34.219677143991412 ] } },
{ "type": "Feature", "properties": { "name": "Tumut", "population": 6518.0, "town_type": "Town Centre" }, "geometry": { "type": "Point", "coordinates": [ 148.219464677854234, -35.30923809282698 ] } },
{ "type": "Feature", "properties": { "name": "Wauchope", "population": 7982.0, "town_type": "Major Town" }, "geometry": { "type": "Point", "coordinates": [ 152.727536127714188, -31.465263187364602 ] } },
{ "type": "Feature", "properties": { "name": "Woolgoolga", "population": 5797.0, "town_type": "Town Centre" }, "geometry": { "type": "Point", "coordinates": [ 153.191972150494138, -30.114984828669826 ] } },
{ "type": "Feature", "properties": { "name": "Yamba", "population": 6342.0, "town_type": "Town Centre" }, "geometry": { "type": "Point", "coordinates": [ 153.338754383069073, -29.433181515984973 ] } },
{ "type": "Feature", "properties": { "name": "Yass", "population": 5837.0, "town_type": "Town Centre" }, "geometry": { "type": "Point", "coordinates": [ 148.913200651540876, -34.838189577611303 ] } },
{ "type": "Feature", "properties": { "name": "Young", "population": 7712.0, "town_type": "Major Town" }, "geometry": { "type": "Point", "coordinates": [ 148.297296839680854, -34.319712290285253 ] } },
{ "type": "Feature", "properties": { "name": "Anna Bay - Boat Harbour", "population": 4241.0, "town_type": "Town Centre" }, "geometry": { "type": "Point", "coordinates": [ 152.101676765636228, -32.781430997952469 ] } },
{ "type": "Feature", "properties": { "name": "Appin", "population": 2869.0, "town_type": "Town Centre" }, "geometry": { "type": "Point", "coordinates": [ 150.789443209456209, -34.201917812686027 ] } },
{ "type": "Feature", "properties": { "name": "Bangalow", "population": 2260.0, "town_type": "Town Centre" }, "geometry": { "type": "Point", "coordinates": [ 153.524021780874563, -28.685767717903637 ] } },
{ "type": "Feature", "properties": { "name": "Bargo", "population": 3314.0, "town_type": "Town Centre" }, "geometry": { "type": "Point", "coordinates": [ 150.576531037061756, -34.289104997851844 ] } },
{ "type": "Feature", "properties": { "name": "Bellingen", "population": 3201.0, "town_type": "Town Centre" }, "geometry": { "type": "Point", "coordinates": [ 152.89933708852169, -30.451773615284047 ] } },
{ "type": "Feature", "properties": { "name": "Berry", "population": 2467.0, "town_type": "Town Centre" }, "geometry": { "type": "Point", "coordinates": [ 150.68551138855949, -34.773532441275179 ] } },
{ "type": "Feature", "properties": { "name": "Blackheath", "population": 4479.0, "town_type": "Town Centre" }, "geometry": { "type": "Point", "coordinates": [ 150.295473704451609, -33.625867651631907 ] } },
{ "type": "Feature", "properties": { "name": "Blayney", "population": 2997.0, "town_type": "Town Centre" }, "geometry": { "type": "Point", "coordinates": [ 149.250488642312661, -33.529579171511045 ] } },
{ "type": "Feature", "properties": { "name": "Bonny Hills", "population": 2825.0, "town_type": "Town Centre" }, "geometry": { "type": "Point", "coordinates": [ 152.837580575617068, -31.588296807110623 ] } },
{ "type": "Feature", "properties": { "name": "Branxton", "population": 2878.0, "town_type": "Town Centre" }, "geometry": { "type": "Point", "coordinates": [ 151.355784934827142, -32.65652206928069 ] } },
{ "type": "Feature", "properties": { "name": "Broulee - Mossy Point", "population": 2502.0, "town_type": "Town Centre" }, "geometry": { "type": "Point", "coordinates": [ 150.17513850031807, -35.842581917448797 ] } },
{ "type": "Feature", "properties": { "name": "Bundanoon", "population": 2642.0, "town_type": "Town Centre" }, "geometry": { "type": "Point", "coordinates": [ 150.29757035528911, -34.658091777065039 ] } },
{ "type": "Feature", "properties": { "name": "Bundeena", "population": 2103.0, "town_type": "Town Centre" }, "geometry": { "type": "Point", "coordinates": [ 151.15169104002959, -34.08544213960765 ] } },
{ "type": "Feature", "properties": { "name": "Bungendore", "population": 3935.0, "town_type": "Town Centre" }, "geometry": { "type": "Point", "coordinates": [ 149.442523360301408, -35.25243314726098 ] } },
{ "type": "Feature", "properties": { "name": "Calala", "population": 3930.0, "town_type": "Town Centre" }, "geometry": { "type": "Point", "coordinates": [ 150.949637525774733, -31.133004495324862 ] } },
{ "type": "Feature", "properties": { "name": "Callala Bay", "population": 3076.0, "town_type": "Town Centre" }, "geometry": { "type": "Point", "coordinates": [ 150.702593215189665, -35.007116988975717 ] } },
{ "type": "Feature", "properties": { "name": "Cobar", "population": 3369.0, "town_type": "Town Centre" }, "geometry": { "type": "Point", "coordinates": [ 145.836150295321232, -31.499255413559087 ] } },
{ "type": "Feature", "properties": { "name": "Condobolin", "population": 2579.0, "town_type": "Town Centre" }, "geometry": { "type": "Point", "coordinates": [ 147.147402005039083, -33.085513918479606 ] } },
{ "type": "Feature", "properties": { "name": "Coonabarabran", "population": 2387.0, "town_type": "Town Centre" }, "geometry": { "type": "Point", "coordinates": [ 149.2765387855315, -31.272940181678052 ] } },
{ "type": "Feature", "properties": { "name": "Coonamble", "population": 2353.0, "town_type": "Town Centre" }, "geometry": { "type": "Point", "coordinates": [ 148.380856079842999, -30.96224781509742 ] } },
{ "type": "Feature", "properties": { "name": "Crookwell", "population": 2098.0, "town_type": "Town Centre" }, "geometry": { "type": "Point", "coordinates": [ 149.466746345274004, -34.459820414167488 ] } },
{ "type": "Feature", "properties": { "name": "Culburra Beach - Orient Point", "population": 3580.0, "town_type": "Town Centre" }, "geometry": { "type": "Point", "coordinates": [ 150.759524675080826, -34.918932433103876 ] } },
{ "type": "Feature", "properties": { "name": "Cumbalum", "population": 2011.0, "town_type": "Town Centre" }, "geometry": { "type": "Point", "coordinates": [ 153.535291260330922, -28.822211206407307 ] } },
{ "type": "Feature", "properties": { "name": "Dungog", "population": 2169.0, "town_type": "Town Centre" }, "geometry": { "type": "Point", "coordinates": [ 151.750528664798765, -32.405885925655085 ] } },
{ "type": "Feature", "properties": { "name": "Evans Head", "population": 2894.0, "town_type": "Town Centre" }, "geometry": { "type": "Point", "coordinates": [ 153.420924662103204, -29.110913803707696 ] } },
{ "type": "Feature", "properties": { "name": "Forest Hill (NSW)", "population": 2835.0, "town_type": "Town Centre" }, "geometry": { "type": "Point", "coordinates": [ 147.461407389726105, -35.156147913231123 ] } },
{ "type": "Feature", "properties": { "name": "Gerringong", "population": 4565.0, "town_type": "Town Centre" }, "geometry": { "type": "Point", "coordinates": [ 150.827293012497421, -34.742652858437403 ] } },
{ "type": "Feature", "properties": { "name": "Gilgandra", "population": 2417.0, "town_type": "Town Centre" }, "geometry": { "type": "Point", "coordinates": [ 148.651512211242562, -31.704410366369199 ] } },
{ "type": "Feature", "properties": { "name": "Glossodia", "population": 2548.0, "town_type": "Town Centre" }, "geometry": { "type": "Point", "coordinates": [ 150.769764164572024, -33.534558579058718 ] } },
{ "type": "Feature", "properties": { "name": "Gloucester", "population": 2469.0, "town_type": "Town Centre" }, "geometry": { "type": "Point", "coordinates": [ 151.960376555850871, -32.014782332029434 ] } },
{ "type": "Feature", "properties": { "name": "Grenfell", "population": 2022.0, "town_type": "Town Centre" }, "geometry": { "type": "Point", "coordinates": [ 148.155383246262403, -33.897772814814374 ] } },
{ "type": "Feature", "properties": { "name": "Greta", "population": 3230.0, "town_type": "Town Centre" }, "geometry": { "type": "Point", "coordinates": [ 151.392441092113245, -32.675808173509083 ] } },
{ "type": "Feature", "properties": { "name": "Gulgong", "population": 2057.0, "town_type": "Town Centre" }, "geometry": { "type": "Point", "coordinates": [ 149.534186156762104, -32.361799710207976 ] } },
{ "type": "Feature", "properties": { "name": "Guyra", "population": 2077.0, "town_type": "Town Centre" }, "geometry": { "type": "Point", "coordinates": [ 151.672798384126736, -30.224829270015181 ] } },
{ "type": "Feature", "properties": { "name": "Harrington", "population": 3240.0, "town_type": "Town Centre" }, "geometry": { "type": "Point", "coordinates": [ 152.669664653067088, -31.877590529413936 ] } },
{ "type": "Feature", "properties": { "name": "Hay", "population": 2208.0, "town_type": "Town Centre" }, "geometry": { "type": "Point", "coordinates": [ 144.838280019652615, -34.513444597991118 ] } },
{ "type": "Feature", "properties": { "name": "Hill Top", "population": 2262.0, "town_type": "Town Centre" }, "geometry": { "type": "Point", "coordinates": [ 150.492876234889479, -34.353786883275447 ] } },
{ "type": "Feature", "properties": { "name": "Howlong", "population": 2654.0, "town_type": "Town Centre" }, "geometry": { "type": "Point", "coordinates": [ 146.63437904335396, -35.982822779986073 ] } },
{ "type": "Feature", "properties": { "name": "Junee", "population": 4882.0, "town_type": "Town Centre" }, "geometry": { "type": "Point", "coordinates": [ 147.571611505100577, -34.861036882056453 ] } },
{ "type": "Feature", "properties": { "name": "Kyogle", "population": 2804.0, "town_type": "Town Centre" }, "geometry": { "type": "Point", "coordinates": [ 152.997074900312583, -28.622283533556864 ] } },
{ "type": "Feature", "properties": { "name": "Lake Cathie", "population": 4049.0, "town_type": "Town Centre" }, "geometry": { "type": "Point", "coordinates": [ 152.844008390738423, -31.556940870534209 ] } },
{ "type": "Feature", "properties": { "name": "Lemon Tree Passage", "population": 2680.0, "town_type": "Town Centre" }, "geometry": { "type": "Point", "coordinates": [ 152.03243678274697, -32.733626071856229 ] } },
{ "type": "Feature", "properties": { "name": "Macksville", "population": 3023.0, "town_type": "Town Centre" }, "geometry": { "type": "Point", "coordinates": [ 152.916458535221693, -30.711169250632661 ] } },
{ "type": "Feature", "properties": { "name": "Maclean", "population": 2711.0, "town_type": "Town Centre" }, "geometry": { "type": "Point", "coordinates": [ 153.205107629109108, -29.457073429671308 ] } },
{ "type": "Feature", "properties": { "name": "Malua Bay", "population": 2372.0, "town_type": "Town Centre" }, "geometry": { "type": "Point", "coordinates": [ 150.226592335935692, -35.786671561969719 ] } },
{ "type": "Feature", "properties": { "name": "Manilla", "population": 2014.0, "town_type": "Town Centre" }, "geometry": { "type": "Point", "coordinates": [ 150.723552667982915, -30.748939457026587 ] } },
{ "type": "Feature", "properties": { "name": "Moruya", "population": 2762.0, "town_type": "Town Centre" }, "geometry": { "type": "Point", "coordinates": [ 150.078616520424816, -35.913909165999662 ] } },
{ "type": "Feature", "properties": { "name": "Mullumbimby", "population": 3589.0, "town_type": "Town Centre" }, "geometry": { "type": "Point", "coordinates": [ 153.489307022151195, -28.553961704023401 ] } },
{ "type": "Feature", "properties": { "name": "Murrumbateman", "population": 2111.0, "town_type": "Town Centre" }, "geometry": { "type": "Point", "coordinates": [ 149.007460884959244, -34.972912544256083 ] } },
{ "type": "Feature", "properties": { "name": "Narrandera", "population": 3783.0, "town_type": "Town Centre" }, "geometry": { "type": "Point", "coordinates": [ 146.553031615207516, -34.743594108255699 ] } },
{ "type": "Feature", "properties": { "name": "Narromine", "population": 3507.0, "town_type": "Town Centre" }, "geometry": { "type": "Point", "coordinates": [ 148.236534697086995, -32.225814886420814 ] } },
{ "type": "Feature", "properties": { "name": "North Rothbury", "population": 2283.0, "town_type": "Town Centre" }, "geometry": { "type": "Point", "coordinates": [ 151.357932354966493, -32.677608807021315 ] } },
{ "type": "Feature", "properties": { "name": "Oberon", "population": 2540.0, "town_type": "Town Centre" }, "geometry": { "type": "Point", "coordinates": [ 149.861213961097917, -33.703114790907691 ] } },
{ "type": "Feature", "properties": { "name": "Ocean Shores", "population": 4818.0, "town_type": "Town Centre" }, "geometry": { "type": "Point", "coordinates": [ 153.536660834950823, -28.519923010842234 ] } },
{ "type": "Feature", "properties": { "name": "Old Bar", "population": 4485.0, "town_type": "Town Centre" }, "geometry": { "type": "Point", "coordinates": [ 152.583564750084037, -31.966134007884062 ] } },
{ "type": "Feature", "properties": { "name": "Picton", "population": 3847.0, "town_type": "Town Centre" }, "geometry": { "type": "Point", "coordinates": [ 150.613225331565133, -34.175021900823204 ] } },
{ "type": "Feature", "properties": { "name": "Pitt Town", "population": 3325.0, "town_type": "Town Centre" }, "geometry": { "type": "Point", "coordinates": [ 150.864506566322973, -33.575370828155641 ] } },
{ "type": "Feature", "properties": { "name": "Quirindi", "population": 2602.0, "town_type": "Town Centre" }, "geometry": { "type": "Point", "coordinates": [ 150.681267684519298, -31.508233278703532 ] } },
{ "type": "Feature", "properties": { "name": "Sandy Beach - Emerald Beach", "population": 4459.0, "town_type": "Town Centre" }, "geometry": { "type": "Point", "coordinates": [ 153.189608764638137, -30.157476046882977 ] } },
{ "type": "Feature", "properties": { "name": "Shoalhaven Heads", "population": 3264.0, "town_type": "Town Centre" }, "geometry": { "type": "Point", "coordinates": [ 150.740913891057033, -34.850264283313138 ] } },
{ "type": "Feature", "properties": { "name": "South Golden Beach", "population": 2219.0, "town_type": "Town Centre" }, "geometry": { "type": "Point", "coordinates": [ 153.543181553667694, -28.496342404249464 ] } },
{ "type": "Feature", "properties": { "name": "Sussex Inlet", "population": 3659.0, "town_type": "Town Centre" }, "geometry": { "type": "Point", "coordinates": [ 150.584234497383108, -35.172122162435571 ] } },
{ "type": "Feature", "properties": { "name": "Tanilba Bay", "population": 4182.0, "town_type": "Town Centre" }, "geometry": { "type": "Point", "coordinates": [ 152.00224063623412, -32.732570997951505 ] } },
{ "type": "Feature", "properties": { "name": "Tea Gardens", "population": 2837.0, "town_type": "Town Centre" }, "geometry": { "type": "Point", "coordinates": [ 152.151478685451991, -32.659653322863477 ] } },
{ "type": "Feature", "properties": { "name": "Temora", "population": 4016.0, "town_type": "Town Centre" }, "geometry": { "type": "Point", "coordinates": [ 147.525747581024035, -34.441946411409234 ] } },
{ "type": "Feature", "properties": { "name": "Tenterfield", "population": 2826.0, "town_type": "Town Centre" }, "geometry": { "type": "Point", "coordinates": [ 152.018875122257441, -29.050153104450505 ] } },
{ "type": "Feature", "properties": { "name": "The Oaks", "population": 2171.0, "town_type": "Town Centre" }, "geometry": { "type": "Point", "coordinates": [ 150.569425318380183, -34.080250471346986 ] } },
{ "type": "Feature", "properties": { "name": "Thirlmere", "population": 4118.0, "town_type": "Town Centre" }, "geometry": { "type": "Point", "coordinates": [ 150.564867078854576, -34.209421330127789 ] } },
{ "type": "Feature", "properties": { "name": "Thrumster", "population": 2115.0, "town_type": "Town Centre" }, "geometry": { "type": "Point", "coordinates": [ 152.831846077145173, -31.465906484891299 ] } },
{ "type": "Feature", "properties": { "name": "Tocumwal", "population": 2587.0, "town_type": "Town Centre" }, "geometry": { "type": "Point", "coordinates": [ 145.583293417609724, -35.808116304627909 ] } },
{ "type": "Feature", "properties": { "name": "Tuross Head", "population": 2292.0, "town_type": "Town Centre" }, "geometry": { "type": "Point", "coordinates": [ 150.131051700253209, -36.053911087294537 ] } },
{ "type": "Feature", "properties": { "name": "Uralla", "population": 2385.0, "town_type": "Town Centre" }, "geometry": { "type": "Point", "coordinates": [ 151.493146266590486, -30.642093221075687 ] } },
{ "type": "Feature", "properties": { "name": "Urunga", "population": 2731.0, "town_type": "Town Centre" }, "geometry": { "type": "Point", "coordinates": [ 153.010759761784612, -30.497599455068876 ] } },
{ "type": "Feature", "properties": { "name": "Vincentia", "population": 2705.0, "town_type": "Town Centre" }, "geometry": { "type": "Point", "coordinates": [ 150.681623313659998, -35.072230178650976 ] } },
{ "type": "Feature", "properties": { "name": "Wallerawang", "population": 2079.0, "town_type": "Town Centre" }, "geometry": { "type": "Point", "coordinates": [ 150.075895375039693, -33.402780342796895 ] } },
{ "type": "Feature", "properties": { "name": "Wellington", "population": 4581.0, "town_type": "Town Centre" }, "geometry": { "type": "Point", "coordinates": [ 148.949239929597042, -32.556404898272866 ] } },
{ "type": "Feature", "properties": { "name": "West Wyalong", "population": 2698.0, "town_type": "Town Centre" }, "geometry": { "type": "Point", "coordinates": [ 147.207279408129324, -33.919049883367101 ] } },
{ "type": "Feature", "properties": { "name": "Wilton", "population": 2959.0, "town_type": "Town Centre" }, "geometry": { "type": "Point", "coordinates": [ 150.686500930636527, -34.230519669781607 ] } },
{ "type": "Feature", "properties": { "name": "Wingham", "population": 4556.0, "town_type": "Town Centre" }, "geometry": { "type": "Point", "coordinates": [ 152.365947686929843, -31.868535331580958 ] } },
{ "type": "Feature", "properties": { "name": "Wollongbar", "population": 2988.0, "town_type": "Town Centre" }, "geometry": { "type": "Point", "coordinates": [ 153.420290366396529, -28.823256662252707 ] } },
{ "type": "Feature", "properties": { "name": "Long Beach - Maloneys Beach (L)", "population": 2231.0, "town_type": "Town Centre" }, "geometry": { "type": "Point", "coordinates": [ 150.226471036412562, -35.692062497353433 ] } },
{ "type": "Feature", "properties": { "name": "Remainder of State/Territory (NSW)", "population": 574269.0, "town_type": "Regional City" }, "geometry": { "type": "Point", "coordinates": [ 146.976806249817116, -32.155970331525303 ] } }
]
}
